{
  "moscow": [
    {
      "name": "Ле`Муррр",
      "address": "г. Москва Алтуфьевское шоссе, д.70/1",
      "latitude": 55.888119,
      "longitude": 37.588781
    },
    {
      "name": "Ле`Муррр",
      "address": "г. Москва Ленинградское шоссе, 112, корус 3ТЦ Маркос Молл, Cats&Dogs",
      "latitude": 55.888129,
      "longitude": 37.588614
    },
    {
      "name": "Ле`Муррр",
      "address": "г. Москва, МКАД, 87км, д.8,  ТК \"Час Пик\"",
      "latitude": 55.898563,
      "longitude": 37.629367
    },
    {
      "name": "Ле`Муррр",
      "address": "г. Москва Бескудниковский бульвар д. 12",
      "latitude": 55.861802,
      "longitude": 37.562955
    },
    {
      "name": "Ле`Муррр",
      "address": "г. Москва Ореховый б-р, 22А",
      "latitude": 55.612045,
      "longitude": 37.732718
    },
    {
      "name": "Ле`Муррр",
      "address": "г. Москва, пл. Киевского вокзала, д.2, ТЦ \"Европейский\"",
      "latitude": 55.744632,
      "longitude": 37.566072
    },
    {
      "name": "Ле`Муррр",
      "address": "г. Москва ул. Верхняя Красносельская, 3А",
      "latitude": 55.785513,
      "longitude": 37.665408
    },
    {
      "name": "Ле`Муррр",
      "address": "МО, Красногорский р-н, п/о Ильинское-Усово, а/д Балтия 26км, ГМ Карусель",
      "latitude": 55.782526,
      "longitude": 37.23621
    },
    {
      "name": "Ле`Муррр",
      "address": "г. Москва Рублевское шоссе, 62",
      "latitude": 55.766212,
      "longitude": 37.380875
    },
    {
      "name": "Ле`Муррр",
      "address": "г. Москва, Ул. Б.Черемушкинская, д1, ТЦ \"Рио\"",
      "latitude": 55.690278,
      "longitude": 37.601879
    },
    {
      "name": "Ле`Муррр",
      "address": "д. Марфино, вл110, ГМ Ашан, Cats&Dogs",
      "latitude": 55.70703,
      "longitude": 37.38644
    },
    {
      "name": "Ле`Муррр",
      "address": "г. Москва ул. Дубравная, 34/29",
      "latitude": 55.846113,
      "longitude": 37.358211
    },
    {
      "name": "Ле`Муррр",
      "address": "г. Москва ул. Маршала Бирюзова, 32",
      "latitude": 55.799588,
      "longitude": 37.483023
    },
    {
      "name": "Ле`Муррр",
      "address": "г. Москва ул. Первомайская, 87",
      "latitude": 55.793551,
      "longitude": 37.803991
    },
    {
      "name": "Ле`Муррр",
      "address": "МО, Красногорский р-н, д. Путилково, 71 км, МКАД",
      "latitude": 55.858503,
      "longitude": 37.397144
    },
    {
      "name": "Ле`Муррр",
      "address": "г. Москва, Хорошевское шоссе, д. 27",
      "latitude": 55.777084,
      "longitude": 37.523743
    },
    {
      "name": "Ле`Муррр",
      "address": "г. Москва Улица Красного Маяка, 2Б, ТРЦ Columbus, Cats&Dogs",
      "latitude": 55.611114,
      "longitude": 37.606622
    },
    {
      "name": "Ле`Муррр",
      "address": "г. Москва Ленинский проспект, 99,",
      "latitude": 55.667496,
      "longitude": 37.517082
    },
    {
      "name": "Ле`Муррр",
      "address": "г. Москва Ленинский пр-т, 99",
      "latitude": 55.668635,
      "longitude": 37.518758
    },
    {
      "name": "Ле`Муррр",
      "address": "г. Москва ул. Фестивальная, 2Б",
      "latitude": 55.856401,
      "longitude": 37.48358
    },
    {
      "name": "Ле`Муррр",
      "address": "г. Москва, Солнцевский пр-т, 21, ТЦ \"Столица\"",
      "latitude": 55.647041,
      "longitude": 37.411741
    },
    {
      "name": "Ле`Муррр",
      "address": "г. Москва ул. Дубнинская, д.30",
      "latitude": 55.729833,
      "longitude": 37.731021
    },
    {
      "name": "Ле`Муррр",
      "address": "г. Москва ул. Сходненская, 56",
      "latitude": 55.850408,
      "longitude": 37.44409
    },
    {
      "name": "Ле`Муррр",
      "address": "г. Москва Новоясеневский, пр-т, 1",
      "latitude": 55.619467,
      "longitude": 37.50928
    },
    {
      "name": "Ле`Муррр",
      "address": "г. Москва, Боровское шоссе,д 6, ТЦ \"Солнечный Рай\"",
      "latitude": 55.658738,
      "longitude": 37.402167
    },
    {
      "name": "Ле`Муррр",
      "address": "МО, Красногорский р-н, вблизи д. Воронки, 23 км а/м Балтия, стр.1 (ТРК Юнимолл)",
      "latitude": 55.7998,
      "longitude": 37.27977
    },
    {
      "name": "Ле`Муррр",
      "address": "Новорижское шоссе 23 км, ст1,",
      "latitude": 55.804511,
      "longitude": 37.298796
    },
    {
      "name": "Ле`Муррр",
      "address": "Новорижское шоссе 26 км, 1,",
      "latitude": 55.778628,
      "longitude": 37.240738
    },
    {
      "name": "Ле`Муррр",
      "address": "МО, Ногинский р-н,  50км+400м,  а/д М-7  \"Волга\", д. 5, ГМ О'Кей",
      "latitude": 55.831292,
      "longitude": 38.393654
    },
    {
      "name": "Ле`Муррр",
      "address": "г. Москва Сигнальный пр-д, д.17",
      "latitude": 55.850995,
      "longitude": 37.597414
    },
    {
      "name": "Ле`Муррр",
      "address": "Улица Таганская, 31/22",
      "latitude": 55.739747,
      "longitude": 37.670672
    },
    {
      "name": "Ле`Муррр",
      "address": "Улица Федеративная, 7,",
      "latitude": 55.704585,
      "longitude": 36.192018
    },
    {
      "name": "Ле`Муррр",
      "address": "Ленинградское ш., 112 к.3",
      "latitude": 55.864798,
      "longitude": 37.466278
    },
    {
      "name": "Ле`Муррр",
      "address": "Москва, поселение Сосенское, бульвар Веласкеса, д.2",
      "latitude": 55.591533,
      "longitude": 37.455714
    },
    {
      "name": "ОПТ ЗООСТАНДАРТ",
      "address": "МО, Мытищинский р-он, д. Сгонники, ул. Промышленная, вл. 7, стр. 2.",
      "latitude": 55.921153,
      "longitude": 37.672208
    },
    {
      "name": "ОПТ Ин-Ритейл",
      "address": "МО, г.Балашиха, микрорайон Салтыковка, Носовихинское ш., вл. 253.",
      "latitude": 55.753022,
      "longitude": 37.941119
    },
    {
      "name": "ОПТ  Мишель и К",
      "address": "г.Ярославль, ул.Промышленная, д.16",
      "latitude": 57.660388,
      "longitude": 39.80621
    },
    {
      "name": "ОПТ  Мишель и К",
      "address": "МО, г.Домодедово, мкр.Востряково, вл.\"Триколор\", стр.24",
      "latitude": 55.374155,
      "longitude": 37.793373
    },
    {
      "name": "ОПТ  Мишель и К",
      "address": "МО, Мытищинский р-он, д. Челобитьево, Осташковское ш., д. 15, 1",
      "latitude": 55.901652,
      "longitude": 37.666638
    },
    {
      "name": "ОПТ ПРОК Ритейл ООО",
      "address": "МО, г.Балашиха, ул. Звездная, д.7, корп.1",
      "latitude": 55.827247,
      "longitude": 37.953821
    },
    {
      "name": "Ярош Т.В. ИП",
      "address": "г Москва ул. Новотетёрки, д.1 Кинологический центр \"Перово\"",
      "latitude": 55.740508,
      "longitude": 37.792405
    },
    {
      "name": "зоомагазин",
      "address": "г.Москва, ул.Введенского,29 стр.1",
      "latitude": 55.633734,
      "longitude": 37.533643
    },
    {
      "name": "зоомагазин",
      "address": "г.Москва, ул.Введенского,29 стр.1",
      "latitude": 55.633734,
      "longitude": 37.533643
    },
    {
      "name": "зоомагазин",
      "address": "г.Москва, ул.Миклуха-Маклая,36",
      "latitude": 55.640111,
      "longitude": 37.532951
    },
    {
      "name": "зоомагазин",
      "address": "г.Москва, ул.Нагатинская,16 ТЦ Конфети",
      "latitude": 55.67889,
      "longitude": 37.642644
    },
    {
      "name": "зоомагазин",
      "address": "г.Москва, 2й Россошанский проезд, д.3 ТЦ Прага",
      "latitude": 55.600847,
      "longitude": 37.608948
    },
    {
      "name": "зоомагазин",
      "address": "г.Москва, Семеновская пл.1  ТЦ Семеновский",
      "latitude": 55.782744,
      "longitude": 37.720816
    },
    {
      "name": "зоомагазин",
      "address": "г.Москва, ул.Первомайская, д.74 стр.1",
      "latitude": 55.792999,
      "longitude": 37.799787
    },
    {
      "name": "зоомагазин",
      "address": "г.Москва, ул.Б.Черкизовская,125 Б",
      "latitude": 55.802482,
      "longitude": 37.74366
    },
    {
      "name": "зоомагазин",
      "address": "МО, г.Химки, ПР-КТ мЕЛЬНИКОВА 10",
      "latitude": 55.902821,
      "longitude": 37.40422
    },
    {
      "name": "зоомагазин",
      "address": "МО, мкр.Сходня, ул.Мичурина,25",
      "latitude": 55.941953,
      "longitude": 37.299719
    },
    {
      "name": "зоомагазин",
      "address": "г.Москва, ул.Свободы,65",
      "latitude": 55.85672,
      "longitude": 37.449649
    },
    {
      "name": "зоомагазин",
      "address": "г.Москва, Фестивальная,13 к.2",
      "latitude": 55.856056,
      "longitude": 37.476154
    },
    {
      "name": "зоомагазин",
      "address": "г.Москва, Дмитровское ш.116",
      "latitude": 55.902317,
      "longitude": 37.548537
    },
    {
      "name": "зоомагазин",
      "address": "г.Москва, Дубнинская.71 стр.2",
      "latitude": 55.878253,
      "longitude": 37.55672
    },
    {
      "name": "зоомагазин",
      "address": "г.Москва, Грекова,4",
      "latitude": 55.885921,
      "longitude": 37.66239
    },
    {
      "name": "зоомагазин",
      "address": "г.Москва, БЦ  Румянцево",
      "latitude": 55.633687,
      "longitude": 37.438904
    },
    {
      "name": "зоомагазин",
      "address": "г.Москва, Севастопольский пр-кт д.28, корп. 2",
      "latitude": 55.664763,
      "longitude": 37.578491
    },
    {
      "name": "зоомагазин",
      "address": "г.Москва, аКАДЕМИКА аНОХИНА, Д.2",
      "latitude": 55.669935,
      "longitude": 37.475809
    },
    {
      "name": "зоомагазин",
      "address": "г.Москва, БИРЮЛЕВСКАЯ, Д.7 СТР.1",
      "latitude": 55.59899,
      "longitude": 37.663387
    },
    {
      "name": "зоомагазин",
      "address": "г.Москва, тИМИРЯЗЕВСКАЯ УЛ.Д.16",
      "latitude": 55.814674,
      "longitude": 37.566101
    },
    {
      "name": "зоомагазин",
      "address": "г.Москва, пАУСТОВСКОГО , Д.2/34",
      "latitude": 55.60312,
      "longitude": 37.541368
    },
    {
      "name": "зоомагазин",
      "address": "г.Москва, Гримау,10",
      "latitude": 55.690041,
      "longitude": 37.579461
    },
    {
      "name": "зоомагазин",
      "address": "г.Москва, Литовский б-р д.42 к.1",
      "latitude": 55.607773,
      "longitude": 37.544279
    },
    {
      "name": "зоомагазин",
      "address": "г.Москва, ул.Винокурова,15",
      "latitude": 55.68656,
      "longitude": 37.593038
    },
    {
      "name": "зоомагазин",
      "address": "Подольск, Парквая, 48",
      "latitude": 55.424917,
      "longitude": 37.51808
    },
    {
      "name": "зоомагазин",
      "address": "Подольск, Рязановское ш.,д.20/1",
      "latitude": 55.472515,
      "longitude": 37.549175
    },
    {
      "name": "зоомагазин",
      "address": "МО, посёлок Красково, ул. Карла Маркса 109",
      "latitude": 55.659736,
      "longitude": 37.989923
    },
    {
      "name": "зоомагазин",
      "address": "МО Раменское, ул. Куйбышева 39а",
      "latitude": 55.564974,
      "longitude": 38.200768
    },
    {
      "name": "зоомагазин",
      "address": "Москва, ул. Люсиновская 48-50",
      "latitude": 55.72123,
      "longitude": 37.621852
    },
    {
      "name": "зоомагазин",
      "address": "Малаховка, Быковского шоссе 20а стр 1",
      "latitude": 55.627707,
      "longitude": 38.003102
    },
    {
      "name": "зоомагазин",
      "address": "Малаховка, ул Шоссейная 26",
      "latitude": 55.642362,
      "longitude": 38.009373
    },
    {
      "name": "зоомагазин",
      "address": "Люберцы, ул Волковская 2а/24",
      "latitude": 55.681915,
      "longitude": 37.895897
    },
    {
      "name": "зоомагазин",
      "address": "рынок Садовод, птичий рынок, павильон 76",
      "latitude": 55.655769,
      "longitude": 37.826574
    },
    {
      "name": "зоомагазин",
      "address": "г.Москва, ул. Пронская 8/4",
      "latitude": 55.70002,
      "longitude": 37.844783
    },
    {
      "name": "зоомагазин",
      "address": "г.Москва, Чонгарский б-р,7",
      "latitude": 55.653068,
      "longitude": 37.613671
    },
    {
      "name": "зоомагазин",
      "address": "г.Москва, Чонграрский б-р,10",
      "latitude": 55.653699,
      "longitude": 37.613974
    },
    {
      "name": "зоомагазин",
      "address": "г.Москва, Профсоюзная,56",
      "latitude": 55.669531,
      "longitude": 37.553042
    },
    {
      "name": "зоомагазин",
      "address": "г.Москва, Профсоюзная,56",
      "latitude": 55.670225,
      "longitude": 37.551658
    },
    {
      "name": "зоомагазин",
      "address": "г.Москва, Раменки,3",
      "latitude": 55.693502,
      "longitude": 37.495659
    },
    {
      "name": "зоомагазин",
      "address": "г.Москва, Профсоюзная,39",
      "latitude": 55.670846,
      "longitude": 37.556055
    },
    {
      "name": "зоомагазин",
      "address": "г.Москва, Профсоюзная,152",
      "latitude": 55.62272,
      "longitude": 37.50632
    },
    {
      "name": "зоомагазин",
      "address": "г.Москва, Профсоюзная,д.3",
      "latitude": 55.686081,
      "longitude": 37.57292
    },
    {
      "name": "зоомагазин",
      "address": "г.Москва, Слобода, октябрьская ул.",
      "latitude": 55.813537,
      "longitude": 37.088084
    },
    {
      "name": "зоомагазин",
      "address": "г.Москва, Кировоградская, 15",
      "latitude": 55.609924,
      "longitude": 37.603415
    },
    {
      "name": "зоомагазин",
      "address": "г.Москва, Ленинский пр-кт, 101",
      "latitude": 55.666812,
      "longitude": 37.515146
    },
    {
      "name": "зоомагазин",
      "address": "г.Москва, ул. Покрышкина, д.5",
      "latitude": 55.664403,
      "longitude": 37.469031
    },
    {
      "name": "зоомагазин",
      "address": "г.Москва, Солнцевский пр-кт,д.2",
      "latitude": 55.652989,
      "longitude": 37.396416
    },
    {
      "name": "зоомагазин",
      "address": "г.Москва, Сентябрьская,д.5",
      "latitude": 55.54866,
      "longitude": 37.066052
    },
    {
      "name": "зоомагазин",
      "address": "г.Москва, Сентябрьская, д.10",
      "latitude": 55.549908,
      "longitude": 37.070274
    },
    {
      "name": "зоомагазин",
      "address": "г.Москва, Киевское ш.",
      "latitude": 55.540064,
      "longitude": 37.082202
    },
    {
      "name": "зоомагазин",
      "address": "г.Москва, Б. Очаковская,27",
      "latitude": 55.679739,
      "longitude": 37.452336
    },
    {
      "name": "зоомагазин",
      "address": "г.Москва, СКОЛКОВСКОЕ Ш.,32",
      "latitude": 55.706815,
      "longitude": 37.402356
    },
    {
      "name": "зоомагазин",
      "address": "г.Москва, НОВАТОРОВ,16",
      "latitude": 55.667691,
      "longitude": 37.524902
    },
    {
      "name": "зоомагазин",
      "address": "г.Москва, 50 ЛЕТ ОКТЯБРЯ,57",
      "latitude": 55.651902,
      "longitude": 37.414399
    },
    {
      "name": "зоомагазин",
      "address": "Москва, Маршала Катукова, 13, к .1",
      "latitude": 55.810354,
      "longitude": 37.404357
    },
    {
      "name": "зоомагазин",
      "address": "МО,г.  Долгопрудный, Первомайская, 50",
      "latitude": 55.937664,
      "longitude": 37.518255
    },
    {
      "name": "зоомагазин",
      "address": "МО,г. Долгопрудный, Лихачевский пр-т, 68/1",
      "latitude": 55.933065,
      "longitude": 37.494288
    },
    {
      "name": "зоомагазин",
      "address": "МО, г. Долгопрудный, Новый б-р, 21",
      "latitude": 55.937185,
      "longitude": 37.497342
    },
    {
      "name": "зоомагазин",
      "address": "МО, г. Долгопрудный, пр-т Пацаева, 7",
      "latitude": 55.947278,
      "longitude": 37.50054
    },
    {
      "name": "зоомагазин",
      "address": "1я Останкинская, д.53",
      "latitude": 55.824171,
      "longitude": 37.631773
    },
    {
      "name": "зоомагазин",
      "address": "МО, г. Химки, ул. Мельникова, 10",
      "latitude": 55.902712,
      "longitude": 37.404591
    },
    {
      "name": "зоомагазин",
      "address": "МО, мкр. Сходня, ул. Мичурина, 25",
      "latitude": 55.942141,
      "longitude": 37.299874
    },
    {
      "name": "зоомагазин",
      "address": "Москва, Свободы, 65",
      "latitude": 55.856432,
      "longitude": 37.449641
    },
    {
      "name": "зоомагазин",
      "address": "Измайловский пр-кт,вл.63",
      "latitude": 55.788204,
      "longitude": 37.787814
    },
    {
      "name": "зоомагазин",
      "address": "КР, ИХ, б-р Космонавтов, 4",
      "latitude": 55.834087,
      "longitude": 37.274694
    },
    {
      "name": "зоомагазин",
      "address": "КР, платформа Красногорская",
      "latitude": 55.814755,
      "longitude": 37.303189
    },
    {
      "name": "зоомагазин",
      "address": "КР, Жуковского, 17",
      "latitude": 55.814755,
      "longitude": 37.323536
    },
    {
      "name": "Зоомагазин",
      "address": "Измайловский пр-кт,вл.63",
      "latitude": 55.788126,
      "longitude": 37.787503
    },
    {
      "name": "Зоомагазин",
      "address": "Химки, Юбилейный пр-т, 3А",
      "latitude": 55.8861,
      "longitude": 37.423141
    },
    {
      "name": "Зоомагазин",
      "address": "Химки, Молодежная, 2А",
      "latitude": 55.879319,
      "longitude": 37.424848
    },
    {
      "name": "зоомагазин",
      "address": "г.Держинский,пл.ДМ.Донского,1A",
      "latitude": 55.631589,
      "longitude": 37.849252
    },
    {
      "name": "Зоомагазин",
      "address": "г.Москва, Марш. Бирюзова. 19",
      "latitude": 55.794366,
      "longitude": 37.491143
    },
    {
      "name": "зоомагазин",
      "address": "г.Москва, Ул.Энергетическая,12",
      "latitude": 55.759519,
      "longitude": 37.706741
    },
    {
      "name": "Зоомир А-Я",
      "address": "г.Москва, Хорошевское ш., 16",
      "latitude": 55.774674,
      "longitude": 37.545689
    },
    {
      "name": "зоомагазин",
      "address": "г.Москва, Хабаровская,8",
      "latitude": 55.819662,
      "longitude": 37.827374
    },
    {
      "name": "Зоотовары А-Я",
      "address": "г.Москва, Марш. Василевского, 15",
      "latitude": 55.807602,
      "longitude": 37.464994
    },
    {
      "name": "зоомагазин",
      "address": "г.Москва, ул. Кулакова, 14",
      "latitude": 55.809034,
      "longitude": 37.395617
    },
    {
      "name": "зоомагазин",
      "address": "г.Балашиха, ул.Свердлова, вл.36",
      "latitude": 55.829716,
      "longitude": 37.972607
    },
    {
      "name": "Зоомагазин",
      "address": "г.Москва, Митинская, 48",
      "latitude": 55.85011,
      "longitude": 37.355399
    },
    {
      "name": "Зоомагазин",
      "address": "г.Москва, ул.Бойцовая, 2/30",
      "latitude": 55.808666,
      "longitude": 37.71522
    },
    {
      "name": "Зоомагазин",
      "address": "г.Дубна, Пантекорова, 15, маг. Оазис",
      "latitude": 56.737563,
      "longitude": 37.170357
    },
    {
      "name": "Зоомагазин",
      "address": "г.Москва, Новогиреевская ул.,29 к.1",
      "latitude": 55.754839,
      "longitude": 37.798128
    },
    {
      "name": "В\\кл \"КЕНТАВР\"",
      "address": "г.Москва, Куркинское ш., 30",
      "latitude": 55.885352,
      "longitude": 37.404088
    },
    {
      "name": "зоомагазин",
      "address": "г.Москва, Измайловский б-р, д.60/10",
      "latitude": 55.796118,
      "longitude": 37.812822
    },
    {
      "name": "Зоомагазин",
      "address": "Одинцово, Трехгорка, Кутузовская, 2",
      "latitude": 55.702242,
      "longitude": 37.326348
    },
    {
      "name": "зоомагазин",
      "address": "г.Москва, 15-я парковая, 44А",
      "latitude": 55.807419,
      "longitude": 37.818555
    },
    {
      "name": "Зоотовары",
      "address": "Одинцово, Привокзальная пл., 5В",
      "latitude": 55.671747,
      "longitude": 37.278261
    },
    {
      "name": "Зоомагазин \"Жираф\"",
      "address": "г.Реутов, ул.Советская,9",
      "latitude": 55.767761,
      "longitude": 37.857022
    },
    {
      "name": "Зоомагазин",
      "address": "г.Москва, Студенческая, 23",
      "latitude": 55.74071,
      "longitude": 37.546426
    },
    {
      "name": "З\\м \"ИГУАНА\"",
      "address": "г.Москва, Сергея Макеева, 6",
      "latitude": 55.759765,
      "longitude": 37.326348
    },
    {
      "name": "Зоомагазин",
      "address": "г.Москва, Рублевское ш., 40, к. 2",
      "latitude": 55.75051,
      "longitude": 37.414733
    },
    {
      "name": "Зоомагазин",
      "address": "г.Москва, Клязьминская, 9",
      "latitude": 55.890729,
      "longitude": 37.524498
    },
    {
      "name": "Зоомагазин",
      "address": "Красногорск, Ленина, 21А",
      "latitude": 55.827414,
      "longitude": 37.311292
    },
    {
      "name": "Зоомагазин",
      "address": "Нахабино, ул. Школьная, 8а",
      "latitude": 55.841382,
      "longitude": 37.144124
    },
    {
      "name": "Бигги Дог",
      "address": "Истринский р-н, Покровское, Центральная, 27",
      "latitude": 55.811361,
      "longitude": 37.013294
    },
    {
      "name": "Зоомагазин",
      "address": "Долгопрудный, Набережная, 31",
      "latitude": 55.96401,
      "longitude": 37.524722
    },
    {
      "name": "Зоомагазин",
      "address": "Одинцово, Свободы, д. 1",
      "latitude": 55.672702,
      "longitude": 37.279968
    },
    {
      "name": "Зоомагазин",
      "address": "Одинцово, Триумфальная, 12",
      "latitude": 55.656778,
      "longitude": 37.227129
    },
    {
      "name": "Зоомагазин",
      "address": "Сходненская, 23",
      "latitude": 55.844399,
      "longitude": 37.4387
    },
    {
      "name": "Зоомагазин",
      "address": "Путилково, Сходненская, 31",
      "latitude": 55.871526,
      "longitude": 37.392248
    },
    {
      "name": "Зоомагазин",
      "address": "Большая Академическая, 4",
      "latitude": 55.817724,
      "longitude": 37.523465
    },
    {
      "name": "Зоомагазин",
      "address": "Ленинградский пр-т, 76А",
      "latitude": 55.805827,
      "longitude": 37.515146
    },
    {
      "name": "З\\м \"БАРИН\"",
      "address": "Химки, Победы, 1/13",
      "latitude": 55.899345,
      "longitude": 37.456352
    },
    {
      "name": "Зоомагазин",
      "address": "Одинцово, пос. Лесной городок, ул. Школьная, д. 1",
      "latitude": 55.632992,
      "longitude": 37.212324
    },
    {
      "name": "Зоомагазин",
      "address": "г.Москва, Фестивальная, 13, к. 2",
      "latitude": 55.856189,
      "longitude": 37.476303
    },
    {
      "name": "Зоомагазин",
      "address": "КР, Народного Ополчения, 1А",
      "latitude": 55.836155,
      "longitude": 37.316978
    },
    {
      "name": "Зоомагазин",
      "address": "Голицино, Петровское ш., д. 1",
      "latitude": 55.615131,
      "longitude": 36.98921
    },
    {
      "name": "Марквет",
      "address": "г.Москва, Исаковского ул, дом № 31",
      "latitude": 55.80613,
      "longitude": 37.417951
    },
    {
      "name": "Марквет",
      "address": "г.Москва, пр. Мира, д.118",
      "latitude": 55.81037,
      "longitude": 37.638608
    },
    {
      "name": "Марквет",
      "address": "г.Москва, ул. Привольная, д.65/32",
      "latitude": 55.68146,
      "longitude": 37.849343
    },
    {
      "name": "Марквет",
      "address": "г.Москва, , Ленинградский пр-кт, дом № 66, строение 1",
      "latitude": 55.803439,
      "longitude": 37.525188
    },
    {
      "name": "Марквет",
      "address": "г.Москва, ул. Генерала Глаголева, д.1",
      "latitude": 55.779046,
      "longitude": 37.460348
    },
    {
      "name": "Марквет",
      "address": "г.Москва,  Хорошевское Шоссе, дом 34",
      "latitude": 55.775135,
      "longitude": 37.538942
    },
    {
      "name": "марквет",
      "address": "г.Москва, пр. Маршала Жукова, д.35 корп.1",
      "latitude": 55.774895,
      "longitude": 37.474674
    },
    {
      "name": "ДиноЗоо",
      "address": "г. Москва, ул. Правобережная, 1Б.",
      "latitude": 55.881009,
      "longitude": 37.449765
    },
    {
      "name": "ПетСити",
      "address": "г.Москва, Люберцы, ул. 65 лет Победы 1лит2Д",
      "latitude": 55.686548,
      "longitude": 37.886258
    },
    {
      "name": "ПетСити",
      "address": "Тула, ул. Металлургов, 89",
      "latitude": 54.195409,
      "longitude": 37.663721
    },
    {
      "name": "ПетСити",
      "address": "Тула, ул. Фрунзе, 3",
      "latitude": 54.200486,
      "longitude": 37.592222
    },
    {
      "name": "ПетСити",
      "address": "Ярославль, ул. Урицкого, 16",
      "latitude": 57.686479,
      "longitude": 39.803712
    },
    {
      "name": "зоомагазин",
      "address": "г.Москва, ул.Введенского,29 стр.1",
      "latitude": 55.633734,
      "longitude": 37.533643
    },
    {
      "name": "Зоотовары",
      "address": "г. Можайск ул Московская д 32",
      "latitude": 55.505679,
      "longitude": 36.018913
    },
    {
      "name": "Зоотовары",
      "address": "г. Можайск ул Дмитрия Пожарского д 2а",
      "latitude": 55.497347,
      "longitude": 36.033492
    }
  ],
  "spb": [
    {
      "name": "Зооэкспресс  ООО",
      "address": "г.Спб, Ириновский пр., д.1, лит.3, пом.5-Н, с 10 до 15",
      "longitude": 30.449331,
      "latitude": 59.950934
    },
    {
      "name": "4 ЛАПЫ СПб",
      "address": "№2 г.Спб, б-р Новаторов, д.17, с 11 до 20",
      "longitude": 30.265068,
      "latitude": 59.853252
    },
    {
      "name": "Зоомагазин",
      "address": "г.Спб, Ленинский пр., д.155",
      "longitude": 30.31002,
      "latitude": 59.851467
    },
    {
      "name": "Зоомагазин",
      "address": "г.Спб,Ленинский пр.,д.84 корп.2",
      "longitude": 30.199446,
      "latitude": 59.859117
    },
    {
      "name": "Зоомагазин",
      "address": "г.Спб, ул. Краснопутиловская, д.20",
      "longitude": 30.268042,
      "latitude": 59.871509
    },
    {
      "name": "Зоомагазин",
      "address": "198252, г. Санкт-Петербург, ул. Краснопутиловская, д.20, литер А, пом.7Н",
      "longitude": 30.268042,
      "latitude": 59.871509
    },
    {
      "name": "ЖИРАФ",
      "address": "№1 г.Спб, пр. Гагарина , д.34, (Строитель), с 10 до 16",
      "longitude": 30.340024,
      "latitude": 59.869205
    },
    {
      "name": "ЖИРАФ",
      "address": "№3 г.Спб, Московское шоссе, д.7, лит А (ТК\"Торговый Двор\" зоомаг.\"Жираф\") , с 11 до 16",
      "longitude": 30.339215,
      "latitude": 59.832317
    },
    {
      "name": "ЖИРАФ",
      "address": "№4 г.Спб, ул.Пулковская, д.10 , с 10 до 16",
      "longitude": 30.351082,
      "latitude": 59.835419
    },
    {
      "name": "ЖИРАФ",
      "address": "№5,г.Спб,пр.Гагарина,д.34 к 19 (Южный рынок), с 8 до 16",
      "longitude": 30.351082,
      "latitude": 59.835419
    },
    {
      "name": "ЗООМАГИЯ",
      "address": "№1 г.Спб, В.О.6-линия, д.27 (подвал), с 10 до 17",
      "longitude": 30.340653,
      "latitude": 59.849266
    },
    {
      "name": "ЗООМАГИЯ",
      "address": "№2 г.Спб, пр.Стачек, д.66  (ТК \"Шайба\" пав.№117) , с 10 до 17",
      "longitude": 30.263056,
      "latitude": 59.880405
    },
    {
      "name": "ЗООМАГИЯ",
      "address": "№4 г.Спб, ш.Революции, д. 41/39 (ТК Перекресток, пав.№10) , с 10 до 17",
      "longitude": 30.439773,
      "latitude": 59.959683
    },
    {
      "name": "ЗООМАГИЯ",
      "address": "№5 г.Спб, пр.Косыгина, д.19 корп. 1 литер А",
      "longitude": 30.482739,
      "latitude": 59.944553
    },
    {
      "name": "ЗООМАГИЯ",
      "address": "№6 г.Спб, Лыжный пер, д,6, с 10 до 19",
      "longitude": 30.198979,
      "latitude": 59.999372
    },
    {
      "name": "ЗООЭКСПРЕСС",
      "address": "г.Спб, ул. Бронницкая, д.15, лит. А, с 11 до 16",
      "longitude": 30.322336,
      "latitude": 59.914313
    },
    {
      "name": "ЗООЭКСПРЕСС",
      "address": "г.Спб, ул. Варшавская, д.54, лит.А, с 11 до 16",
      "longitude": 30.314584,
      "latitude": 59.862298
    },
    {
      "name": "ЗООЭКСПРЕСС",
      "address": "г.Спб, ул.Декабристов, д.58, лит.А, с 11 до 16",
      "longitude": 30.28511,
      "latitude": 59.923793
    },
    {
      "name": "ЗООЭКСПРЕСС",
      "address": "г.Спб. ул. Туристская, д.30, корп. 1, лит А, с 11 до 17",
      "longitude": 30.21028,
      "latitude": 60.005036
    },
    {
      "name": "ЗООЭКСПРЕСС",
      "address": "ЛО, д. Кудрово, ул. Ленинградская, д. 9/8, помещение 4-Н с 10 до 16",
      "longitude": 30.51886,
      "latitude": 59.915183
    },
    {
      "name": "ЗООЭКСПРЕСС",
      "address": "г.Спб, г.Пушкин, б-р Алексея Толстого, д.5а",
      "longitude": 30.419561,
      "latitude": 59.731201
    },
    {
      "name": "ЗООЭКСПРЕСС",
      "address": "г.Спб, г.Пушкин, ул.Генерала Хазова, д.9",
      "longitude": 30.402744,
      "latitude": 59.737532
    },
    {
      "name": "ЗООЭКСПРЕСС",
      "address": "г.Спб, пр. Луначарского, д.76, кор.2",
      "longitude": 30.365132,
      "latitude": 60.036906
    },
    {
      "name": "ЗООЭКСПРЕСС",
      "address": "192283, г. Санкт-Петербург, Ярослава Гашека ул., д. 9, стр. к.1 лит. А",
      "longitude": 30.385065,
      "latitude": 59.830676
    },
    {
      "name": "ЗООЭКСПРЕСС",
      "address": "197349,г.СПб,ул.Уточкина,д.3,корп.3,литера А,комн.16",
      "longitude": 30.264377,
      "latitude": 60.010258
    },
    {
      "name": "ЗООЭКСПРЕСС",
      "address": "г.Спб, ул. Бронницкая, д.15, лит. А, с 11 до 16",
      "longitude": 30.322336,
      "latitude": 59.914313
    },
    {
      "name": "ЗООЭКСПРЕСС",
      "address": "г.Спб, ул. Варшавская, д.54, лит.А,пом. 6-Н",
      "longitude": 30.314584,
      "latitude": 59.862298
    },
    {
      "name": "ЗООЭКСПРЕСС",
      "address": "г.Спб, ул.Декабристов, д.58 лит.А, с 11 до 16",
      "longitude": 30.28511,
      "latitude": 59.923793
    },
    {
      "name": "ЗООЭКСПРЕСС",
      "address": "г.Спб. ул. Туристская, д.30, корп. 1, лит А, с 11 до 17",
      "longitude": 30.21028,
      "latitude": 60.005036
    },
    {
      "name": "ЗООЭКСПРЕСС",
      "address": "ЛО, д. Кудрово, ул. Ленинградская, д. 9/8, помещение 4-Н",
      "longitude": 30.51886,
      "latitude": 59.915183
    },
    {
      "name": "ЗООЭКСПРЕСС",
      "address": "ЛО, д. Кудрово, ул. Ленинградская, д. 9/8, помещение 4-Н",
      "longitude": 30.51886,
      "latitude": 59.915183
    },
    {
      "name": "ЗООЭКСПРЕСС",
      "address": "ЛО,д.Кудрово, Столичная ул., д. 4, корп.4, 63-Н",
      "longitude": 30.516013,
      "latitude": 59.902785
    },
    {
      "name": "К-9",
      "address": "№12 Красное Село,пр.Ленина д.51",
      "longitude": 30.090678,
      "latitude": 59.741237
    },
    {
      "name": "К-10",
      "address": "№22 г.Санкт-Петербург,Разъезжая ул.,д.20",
      "longitude": 30.3473,
      "latitude": 59.924366
    },
    {
      "name": "К-11",
      "address": "№26 г.Санкт-Петербург,Чернышевского ул. д. 10",
      "longitude": 30.359715,
      "latitude": 59.947343
    },
    {
      "name": "К-12",
      "address": "№30 г.Санкт-Петербург,пр. Косыгина, д. 31",
      "longitude": 30.497849,
      "latitude": 59.94472
    },
    {
      "name": "К-13",
      "address": "г.Санкт-Петербург,пр. Косыгина, д. 31",
      "longitude": 30.497849,
      "latitude": 59.94472
    },
    {
      "name": "К-14",
      "address": "г.Санкт-Петербург,Большая Пушкарская ул. д. 2",
      "longitude": 30.2958,
      "latitude": 59.95425
    },
    {
      "name": "К-15",
      "address": "г.Санкт-Петербург,Разъезжая ул.,д.20",
      "longitude": 30.3473,
      "latitude": 59.924366
    },
    {
      "name": "К-16",
      "address": "г.Санкт-Петербург,Чернышевского ул. д. 10",
      "longitude": 30.359715,
      "latitude": 59.947343
    },
    {
      "name": "К-17",
      "address": "Красное Село,пр.Ленина д.51",
      "longitude": 37.290298,
      "latitude": 55.425435
    },
    {
      "name": "К-18",
      "address": "163000, г.Архангельск, пр. Троицкий, д.158",
      "longitude": 40.523892,
      "latitude": 64.555778
    },
    {
      "name": "К-19",
      "address": "163071, г. , Архангельск., ул. Набережная Северной Двины д 6 корп.1",
      "longitude": 40.558495,
      "latitude": 64.526905
    },
    {
      "name": "КОРМУШКА",
      "address": "№ 7 пос.Парголово, Первого Мая дом 79 корпус 2.",
      "longitude": 30.24032,
      "latitude": 60.07375
    },
    {
      "name": "КОРМУШКА",
      "address": "г.Спб, № 1 пр. Гражданский, д.68 , с 10  до 21",
      "longitude": 30.39704,
      "latitude": 60.013767
    },
    {
      "name": "КОРМУШКА",
      "address": "г.Спб, № 2 ул. Сикейроса, д. 6, корп. 1 , с 10 до 20.30",
      "longitude": 30.32778,
      "latitude": 60.035841
    },
    {
      "name": "КОРМУШКА",
      "address": "г.Спб, № 3 пр. Луначарского, д.80 корп. 1 (м-н \"Пятерочка\"), с 10 до 20 (обед с 13 до 13.30)",
      "longitude": 30.374663,
      "latitude": 60.035526
    },
    {
      "name": "КОРМУШКА",
      "address": "г.Спб, № 5 пр. Луначарского, д.80 с 10 до 18",
      "longitude": 30.374663,
      "latitude": 60.035526
    },
    {
      "name": "КОРМУШКА",
      "address": "г.Спб, № 6 пр.Светлановский , д.36/1 , с 10 до 20",
      "longitude": 30.375498,
      "latitude": 60.022598
    },
    {
      "name": "КОРМУШКА",
      "address": "г.Спб, №10 пр. Художников , д. 11 , с 10 до 21",
      "longitude": 30.345468,
      "latitude": 60.036119
    },
    {
      "name": "КОРМУШКА",
      "address": "г.Спб, №10 пр. Художников , д. 11 , с 10 до 21",
      "longitude": 30.345468,
      "latitude": 60.036119
    },
    {
      "name": "КОРМУШКА",
      "address": "г.Спб, №11 ул. Есенина, д.32 (переехал чуть левее) ,с 10 до 20",
      "longitude": 30.341479,
      "latitude": 60.051818
    },
    {
      "name": "КОРМУШКА",
      "address": "г.Спб, №12 пр. Мориса Тореза, д.9  , с 10 до 13",
      "longitude": 30.364081,
      "latitude": 60.000263
    },
    {
      "name": "КОРМУШКА",
      "address": "г.Спб, №12 пр. Мориса Тореза, д.9  , с 10 до 13",
      "longitude": 30.364081,
      "latitude": 60.000263
    },
    {
      "name": "КОРМУШКА",
      "address": "№ 8 ЛО, пос. Бернгардовка, ул. Магистральная , д. 8, с 11 до 20",
      "longitude": 38.181714,
      "latitude": 45.27442
    },
    {
      "name": "КОРМУШКА",
      "address": "г.Спб, № 1 пр. Гражданский, д.68 , с 10  до 21",
      "longitude": 30.39704,
      "latitude": 60.013767
    },
    {
      "name": "КОРМУШКА",
      "address": "г.Спб, № 2 ул. Сикейроса, д. 6, корп. 1 , с 10 до 20.30",
      "longitude": 30.32778,
      "latitude": 60.035841
    },
    {
      "name": "КОРМУШКА",
      "address": "г.Спб, № 3 пр. Луначарского, д.80 корп. 1 (м-н \"Пятерочка\"), с 10 до 20 (обед с 13 до 13.30)",
      "longitude": 30.374663,
      "latitude": 60.035526
    },
    {
      "name": "КОРМУШКА",
      "address": "г.Спб, № 5 пр. Луначарского, д.80 с 10 до 18",
      "longitude": 30.374663,
      "latitude": 60.035526
    },
    {
      "name": "КОРМУШКА",
      "address": "г.Спб, № 6 пр.Светлановский , д.36/1 , с 10 до 20",
      "longitude": 30.375498,
      "latitude": 60.022598
    },
    {
      "name": "КОРМУШКА",
      "address": "г.Спб, №10 пр. Художников , д. 11 , с 10 до 21",
      "longitude": 30.345468,
      "latitude": 60.036119
    },
    {
      "name": "КОРМУШКА",
      "address": "г.Спб, №12 пр. Мориса Тореза, д.9  , с 10 до 13",
      "longitude": 30.364081,
      "latitude": 60.000263
    },
    {
      "name": "МУРЗИК",
      "address": "197227 Санкт-Петербург, Серебристый бул., д. 21, лит. А, помещение 64-Н",
      "longitude": 30.283933,
      "latitude": 60.007074
    },
    {
      "name": "МУРЗИК",
      "address": "№1 г.Спб, пр. Авиаконструкторов, д.24, с 11 до 22",
      "longitude": 30.231633,
      "latitude": 60.02182
    },
    {
      "name": "МУРЗИК",
      "address": "№2 г.Спб, пр.Богатырский , д.35 , с 10 до 20",
      "longitude": 30.242072,
      "latitude": 60.004303
    },
    {
      "name": "НАШ ЗВЕРОЛАШ",
      "address": "г. Боровичи, ул. Подбельского, д. 17Б",
      "longitude": 33.912561,
      "latitude": 58.391403
    },
    {
      "name": "НАШ ЗВЕРОЛАШ",
      "address": "198216, г.Санкт-Петербург,Ленинский пр., д.139, лит.А,пом. 204",
      "longitude": 30.287131,
      "latitude": 59.851404
    },
    {
      "name": "НАШ ЗВЕРОЛАШ",
      "address": "г.Гатчина, Пушкинское ш.,15 ТРК \"КУБУС\"",
      "longitude": 30.148045,
      "latitude": 59.582031
    },
    {
      "name": "НАШ ЗВЕРОЛАШ",
      "address": "г.Спб, г.Петергоф, Санкт-Петербургский пр., д.60 , с 11 до 18",
      "longitude": 29.890246,
      "latitude": 59.88227
    },
    {
      "name": "НАШ ЗВЕРОЛАШ",
      "address": "г.Спб, пр. Ветеранов, д.91 , с 11 до 18",
      "longitude": 30.212598,
      "latitude": 59.83376
    },
    {
      "name": "НАШ ЗВЕРОЛАШ",
      "address": "ЛО, г. Выборг, ул. Куйбышева, д.9 (напротив старого) , с 11 до 18",
      "longitude": 28.755845,
      "latitude": 60.711856
    },
    {
      "name": "НАШ ЗВЕРОЛАШ",
      "address": "ЛО, г. Ломоносов, ул. Михайловская, д.40/7, стр.1(ТК \"Family Park\", предкассовая зона), с 10 до 15",
      "longitude": 29.768237,
      "latitude": 59.903088
    },
    {
      "name": "НАШ ЗВЕРОЛАШ",
      "address": "г.Спб, г.Павловск, ул. Берёзовая, д.24 , с 11 до 18",
      "longitude": 30.424043,
      "latitude": 59.685739
    },
    {
      "name": "НАШ ЗВЕРОЛАШ",
      "address": "г.Спб, ул.Большая Пороховская, д.13, с 11 до 19",
      "longitude": 30.41356,
      "latitude": 59.953344
    },
    {
      "name": "НАШ ЗВЕРОЛАШ",
      "address": "ЛО, г.Всеволожск, ул.Александровская, д.80 , с 11 до 19",
      "longitude": 30.63177,
      "latitude": 60.024716
    },
    {
      "name": "НАШ ЗВЕРОЛАШ",
      "address": "Санкт-Петербург,Выборгское шоссе, д.15 ,ТЦ Авеню(разгрузка со двора)",
      "longitude": 30.311862,
      "latitude": 60.05295
    },
    {
      "name": "НАШ ЗВЕРОЛАШ",
      "address": "Санкт-Петербург,ул. Боткинская д.4 лит. А.",
      "longitude": 30.354055,
      "latitude": 59.957742
    },
    {
      "name": "ПЛАНЕТА ЖИВОТНЫХ",
      "address": "№ 2 г.Спб, ул.Будапештская, д.11 \"Г\", с 10 до 21",
      "longitude": 30.367027,
      "latitude": 59.86888
    },
    {
      "name": "ПЛАНЕТА ЖИВОТНЫХ",
      "address": "№ 2 г.Спб, ул.Будапештская, д.11 \"Г\", с 10 до 21",
      "longitude": 30.367027,
      "latitude": 59.86888
    },
    {
      "name": "ПЛАНЕТА ЖИВОТНЫХ",
      "address": "№ 3 г.Спб, бульвар Новаторов , д.36 (подвал), с 10 до 21",
      "longitude": 30.271994,
      "latitude": 59.847358
    },
    {
      "name": "ПЛАНЕТА ЖИВОТНЫХ",
      "address": "№ 4 г.Спб, ул.Варшавская, д.104, с 10 до 21",
      "longitude": 30.31735,
      "latitude": 59.849302
    },
    {
      "name": "ПЛАНЕТА ЖИВОТНЫХ",
      "address": "№ 4 г.Спб, ул.Варшавская, д.104, с 10 до 21",
      "longitude": 30.31735,
      "latitude": 59.849302
    },
    {
      "name": "ПЛАНЕТА ЖИВОТНЫХ",
      "address": "№5 г.Спб,Красное Село,пр..Ленина ,д.85",
      "longitude": 30.083294,
      "latitude": 59.72925
    },
    {
      "name": "Рекс (Рекс)",
      "address": "Санкт-Петербург,пос.Парголово,ул.Федора Абрамова,дом 8,литер А,пом.232-Н",
      "longitude": 30.338317,
      "latitude": 60.073759
    },
    {
      "name": "Рекс (Рекс)",
      "address": "194295г. СПб,Поэтический бульвар д.2, лит.А.пом.192к1",
      "longitude": 30.339871,
      "latitude": 60.04468
    },
    {
      "name": "Рекс (Рекс)",
      "address": "194223, г. Санкт-Петербург, ул. Есенина, д.19, кор. 2",
      "longitude": 30.33944,
      "latitude": 60.047371
    },
    {
      "name": "Сова",
      "address": "№1, г.Санкт-Петербург,ул.Замшина 56-2",
      "longitude": 30.404083,
      "latitude": 59.979556
    },
    {
      "name": "Сова",
      "address": "№10 Санкт-Петербург, ул. Енотаевская участок 16 (Южнее дома 6, сооружение 1 по Елецкой улице)",
      "longitude": 30.316236,
      "latitude": 60.01624
    },
    {
      "name": "Сова",
      "address": "№11  г.Спб, Скобелевский пр., д.16",
      "longitude": 30.316218,
      "latitude": 60.017782
    },
    {
      "name": "Сова",
      "address": "№12,г.Спб, ул. Рихарда Зорге, д.20, лит А",
      "longitude": 30.193347,
      "latitude": 59.850929
    },
    {
      "name": "Сова",
      "address": "№13  г.Спб, Светлановский пр. , д.60, корп. 1",
      "longitude": 30.39536,
      "latitude": 60.036596
    },
    {
      "name": "Сова",
      "address": "№3 Санкт-Петербург,Пражская ул.48/50",
      "longitude": 30.404074,
      "latitude": 59.863328
    },
    {
      "name": "Сова",
      "address": "№7 Санкт-Петербург, пр. Стачек 99",
      "longitude": 30.248342,
      "latitude": 59.858787
    },
    {
      "name": "Сова",
      "address": "№8 Санкт-Петербург, Гражданский пр.104",
      "longitude": 30.411449,
      "latitude": 60.027939
    },
    {
      "name": "Сова",
      "address": "г.Спб, пр. Просвещения, д.19",
      "longitude": 30.331193,
      "latitude": 60.052703
    },
    {
      "name": "ФИЛЯ",
      "address": "№1 г.Спб, ул.Туристская, д.28, корп.1, пом. 34-Н, с 10 до 21",
      "longitude": 30.211798,
      "latitude": 60.007672
    },
    {
      "name": "ФИЛЯ",
      "address": "№2 г.Спб, Комендантский пр., д.34, корп.1, с 10 до 21",
      "longitude": 30.242413,
      "latitude": 60.021146
    },
    {
      "name": "ФИЛЯ",
      "address": "№3 г. Спб, пр. Луначарского, д. 15, корп. 1, с 10 до 21",
      "longitude": 30.333448,
      "latitude": 60.04211
    },
    {
      "name": "ФИЛЯ",
      "address": "№4 г.СПб, Косыгина пр-кт, д.17, стр.1 Лит А, Пом. 5-H",
      "longitude": 30.47619,
      "latitude": 59.943805
    },
    {
      "name": "ФИЛЯ",
      "address": "№5 г. Санкт-Петербург, Энгельса пр-кт, д. 51",
      "longitude": 30.323585,
      "latitude": 60.014886
    },
    {
      "name": "ФИЛЯ",
      "address": "№6 г.Санкт-Петербург, Ленинский проспект д.92 корп.1",
      "longitude": 30.212122,
      "latitude": 59.854811
    },
    {
      "name": "ФИЛЯ",
      "address": "№1 г.Спб, ул Наличная, д.42, с 12 до 20",
      "longitude": 30.232226,
      "latitude": 59.95124
    },
    {
      "name": "ФИЛЯ",
      "address": "№2 г.Спб, В.О. Средний пр-кт, д.50 (угол Среднего и 13-ой линии, 2 этаж), с 10 до 21",
      "longitude": 30.270854,
      "latitude": 59.940641
    },
    {
      "name": "ФИЛЯ",
      "address": "№3 г.Спб, ул.Гаванская, д.25 (цоколь), с 10 до 20",
      "longitude": 30.240401,
      "latitude": 59.932207
    },
    {
      "name": "ФИЛЯ",
      "address": "№4 г.Спб, ул.Наличная, д. 44 , с 10 до 20",
      "longitude": 30.227043,
      "latitude": 59.95284
    },
    {
      "name": "ФИЛЯ",
      "address": "№5 г.Спб, ул.Кораблестроителей, д.34( подвал), с 10 до 21",
      "longitude": 30.217736,
      "latitude": 59.954043
    },
    {
      "name": "ФИЛЯ",
      "address": "№6 г.Спб, ул.Кораблестроителей, д.44, к.1, с 10 до 21",
      "longitude": 30.228974,
      "latitude": 59.957012
    },
    {
      "name": "ФИЛЯ",
      "address": "№7 г.Спб, ул.Наличная, д. 27, с 10 до 20",
      "longitude": 30.234148,
      "latitude": 59.938108
    },
    {
      "name": "ФИЛЯ",
      "address": "г.Спб, Б.Сампсониевский пр., д.18 (магазин) , с 11 до 19",
      "longitude": 30.345045,
      "latitude": 59.959899
    },
    {
      "name": "ФИЛЯ",
      "address": "г.Спб, Искровский пр., д.12 , с 10 до 20",
      "longitude": 30.462886,
      "latitude": 59.911065
    },
    {
      "name": "ФИЛЯ",
      "address": "г.Спб, Кирочная ул.,7 литер А пом. 7Н(подвал), с 10 до 21",
      "longitude": 30.353786,
      "latitude": 59.943809
    },
    {
      "name": "ФИЛЯ",
      "address": "г.Спб, ул.Рыбацкая, д.10 , с 11 до 20",
      "longitude": 30.296258,
      "latitude": 59.958692
    },
    {
      "name": "ФИЛЯ",
      "address": "г.Спб, Чкаловский пр., д.26 , с 10 до 20",
      "longitude": 30.294066,
      "latitude": 59.963034
    },
    {
      "name": "ФИЛЯ",
      "address": "г.Спб,Новочеркасский пр.,д.22/15 литер А",
      "longitude": 30.410991,
      "latitude": 59.930908
    },
    {
      "name": "ФИЛЯ",
      "address": "г.Спб,пр. Ударников, д. 47 , с 10 до 20",
      "longitude": 30.489962,
      "latitude": 59.955584
    },
    {
      "name": "ФИЛЯ",
      "address": "г.Спб,Шоссе Революции 69",
      "longitude": 30.464315,
      "latitude": 59.962093
    },
    {
      "name": "Зоомагазин",
      "address": "г.Спб, Выборгское ш., д. 503, корп.1(ТК Призма), с 10 до 21",
      "longitude": 30.311179,
      "latitude": 60.050421
    },
    {
      "name": "Зоомагазин",
      "address": "г.Спб, пр.Маршала Жукова, д. 41",
      "longitude": 30.218563,
      "latitude": 59.85111
    },
    {
      "name": "Зоомагазин",
      "address": "г.Спб, Выборгское ш., д. 503, корп.1",
      "longitude": 30.311179,
      "latitude": 60.050421
    },
    {
      "name": "Акита",
      "address": "Санкт-Петербург г., ш. Пулковское, д.53, лит.А",
      "longitude": 30.322489,
      "latitude": 59.778634
    },
    {
      "name": "Акита",
      "address": "Санкт-Петербург,Петергофское шоссе д.73 ,лит а29",
      "longitude": 30.11999,
      "latitude": 59.855936
    },
    {
      "name": "Зоомагазин",
      "address": "СПб,г. Кудрово,ул.Центральная,д.37",
      "longitude": 30.503481,
      "latitude": 59.903074
    },
    {
      "name": "Зоомагазин",
      "address": "С-Пб Пр Косыгина д 27 корп.1, въезд со двора, с 9 до 14",
      "longitude": 30.494211,
      "latitude": 59.944706
    },
    {
      "name": "Зоомагазин",
      "address": "СПб,ул.Южное шоссе 51 к.3 стр.1, кв.70",
      "longitude": 30.414674,
      "latitude": 59.863003
    },
    {
      "name": "Зоомагазин",
      "address": "г.Спб, ул. Байконурская 26",
      "longitude": 30.279379,
      "latitude": 60.014711
    },
    {
      "name": "Зоомагазин",
      "address": "СПб, пр.Стачек 84/1, маг. Марсик",
      "longitude": 30.260056,
      "latitude": 59.870854
    },
    {
      "name": "Зоомагазин",
      "address": "СПб,Домостроительная улица, 1Б 'Центр офисного обслуживания'",
      "longitude": 30.366776,
      "latitude": 60.061538
    },
    {
      "name": "Зоомагазин",
      "address": "СПб, 6-й Предпортовый проезд д. 8 ЛИТ Б.",
      "longitude": 30.307298,
      "latitude": 59.82708
    },
    {
      "name": "Зоомагазин",
      "address": "СПб, ул.Авангардная,д.51,кв.5,",
      "longitude": 30.18378,
      "latitude": 59.826144
    },
    {
      "name": "Зоомагазин",
      "address": "191167, г Санкт-Петербург, ул . Атаманская, д. 3/6, лит А, пом 18",
      "longitude": 30.379487,
      "latitude": 59.919554
    },
    {
      "name": "Зоомагазин",
      "address": "ЛО, г. Кириши, пр. Героев, д. 35 , ГМ \"Магнит\",",
      "longitude": 32.044029,
      "latitude": 59.444512
    },
    {
      "name": "Зоомагазин",
      "address": "ЛО, г. Сланцы, ул.Ленина , д.27 (ГП \"Магнит \"), с 9 до 22",
      "longitude": 28.100299,
      "latitude": 59.118908
    },
    {
      "name": "Зоомагазин",
      "address": "ЛО, г.Кингисепп , Криковское ш., д. 69  (ТЦ \"Лента\"), с 9 до 20",
      "longitude": 28.601829,
      "latitude": 59.394661
    },
    {
      "name": "Зоомагазин",
      "address": "ЛО, г.Кингисепп, ул. Большая Советская , д. 28 (ТЦ №38), с 10 до 18",
      "longitude": 28.61003,
      "latitude": 59.378562
    },
    {
      "name": "Зоомагазин",
      "address": "ЛО, г.Кингисепп, ул. Первая линия, д. 2б (ГМ \"Магнит\"), с 10 до 18",
      "longitude": 28.61109,
      "latitude": 59.374303
    },
    {
      "name": "Зоомагазин",
      "address": "СПб, наб. Обводного канала, д. 136",
      "longitude": 30.283277,
      "latitude": 59.908642
    },
    {
      "name": "Зоомагазин",
      "address": "г.Спб, ул.Крыленко, д.43, корп.2  (Полуподвал с торца дома), с 10 до 15",
      "longitude": 30.493609,
      "latitude": 59.899329
    },
    {
      "name": "Зоомагазин",
      "address": "г.Санкт-Петербург,  Уманский пер.д.71",
      "longitude": 30.450319,
      "latitude": 59.961228
    },
    {
      "name": "Зоомагазин",
      "address": "СПб, ул. Турку, д.8, корп.1",
      "longitude": 30.385595,
      "latitude": 59.868248
    },
    {
      "name": "Зоомагазин",
      "address": "г. Санкт-Петербург, Кубинская ул., д. 76, стр. корп. 4, лит. А, пом. 1",
      "longitude": 30.299519,
      "latitude": 59.877791
    },
    {
      "name": "Зоомагазин",
      "address": "г.Спб, пр.Сизова, д.34/18, пом. 4Н (вход со двора) , с 9 до 13",
      "longitude": 30.268374,
      "latitude": 60.000389
    },
    {
      "name": "Зоомагазин",
      "address": "г.Спб, пр.Сизова, д.34/18, пом. 4Н (вход со двора) , с 9 до 13",
      "longitude": 30.268374,
      "latitude": 60.000389
    },
    {
      "name": "Зоомагазин",
      "address": "г.Сосновый Бор,пр.Героев,д.60,кв.77",
      "longitude": 29.089147,
      "latitude": 59.909468
    },
    {
      "name": "Зоомагазин",
      "address": "СПб,Набережная Обводного канала д187.",
      "longitude": 30.290194,
      "latitude": 59.909495
    },
    {
      "name": "Зоомагазин",
      "address": "г.СПб,пр. Энгельса,д.30,лит.А,1 этаж",
      "longitude": 30.325327,
      "latitude": 60.007276
    },
    {
      "name": "Зоомагазин",
      "address": "ЛО, Всеволожский р-н, дер. Порошкино, дорога на Мендсары, д. 10",
      "longitude": 30.352995,
      "latitude": 60.122071
    },
    {
      "name": "Зоомагазин",
      "address": "Ленинградская область,Всеволожский р-н, дер.Кудрово, ул. Пражская,д 9",
      "longitude": 30.516408,
      "latitude": 59.907496
    },
    {
      "name": "Зоомагазин",
      "address": "СПб, пр. Большевиков,д.32 А",
      "longitude": 30.492666,
      "latitude": 59.896292
    },
    {
      "name": "Айболит 99",
      "address": "г.Спб, Московская Славянка, Колпинское шоссе, д.36, к1, с 10 до 19",
      "longitude": 30.477511,
      "latitude": 59.738702
    },
    {
      "name": "Зоомагазин",
      "address": "СПб, ул.Будапештская д.36, кор2лит А",
      "longitude": 30.378517,
      "latitude": 59.863062
    },
    {
      "name": "Зоомагазин",
      "address": "г.Спб, г.Кронштадт, ул. Комсомола, д. 1, с 10 до 21",
      "longitude": 29.78827,
      "latitude": 59.993154
    },
    {
      "name": "Зоомагазин",
      "address": "Санкт-Петербург, Российский пр., д.8",
      "longitude": 30.470639,
      "latitude": 59.926666
    },
    {
      "name": "Зоомагазин",
      "address": "ЛО, г Гатчина,  пр. 25-го Октября, д. 31 (въезд с ул. Радищева во дворе маг \"Чарли\"), с 10 до 21",
      "longitude": 30.123512,
      "latitude": 59.570151
    },
    {
      "name": "Зоомагазин",
      "address": "ЛО, г. Гатчина, ул. Генерала Кныша, д. 2А, с 10 до 21",
      "longitude": 30.093068,
      "latitude": 59.563569
    },
    {
      "name": "Зоомагазин",
      "address": "ЛО, д. Кудрово, ул. Ленинградская, д. 7, пом. 27-Н, с 10 до 21",
      "longitude": 30.512455,
      "latitude": 59.913591
    },
    {
      "name": "ВЕЛЕС",
      "address": "ЛО, пгт им. Морозова, ул. Мира, д. 3А, с 10 до 21",
      "longitude": 31.027244,
      "latitude": 59.9726
    },
    {
      "name": "ВЕТЕРИНАРНАЯ СЛУЖБА №1",
      "address": "193318, г. Санкт-Петербург, ул.Коллонтай, д.11, к. 1, лит.А,, с 10 до 19",
      "longitude": 30.452143,
      "latitude": 59.916947
    },
    {
      "name": "Ветеринарная служба №1 Ленинск",
      "address": "г.Спб, Ленинский пр.,  д 106",
      "longitude": 30.230483,
      "latitude": 59.852773
    },
    {
      "name": "Зоомагазин",
      "address": "г.Спб, ул.Королева, д.65 с 10 до 21",
      "longitude": 30.242036,
      "latitude": 60.03354
    },
    {
      "name": "Зоомагазин",
      "address": "г.Спб, б-р Новаторов, д.28, лит \"А\", пом 2Н, будни с 11 до 20, вых с 11 до 18",
      "longitude": 30.267314,
      "latitude": 59.850649
    },
    {
      "name": "Зоомагазин",
      "address": "197760, г. Санкт-Петербург, г. Кронштадт, пр. Ленина, д. 8, лит. А, пом. 15Н (подвал);с 11 до 18",
      "longitude": 29.765919,
      "latitude": 59.99701
    },
    {
      "name": "Зоомагазин",
      "address": "196158, г. САнкт-Петербург, Пулковская, д.11, Литер А, пом. 10Н",
      "longitude": 30.348702,
      "latitude": 59.838326
    },
    {
      "name": "Зоомагазин",
      "address": "г.Спб, ул. Чекистов, д. 28, с 11 до 20",
      "longitude": 30.162831,
      "latitude": 59.843756
    },
    {
      "name": "Зоомагазин",
      "address": "г.Спб, ул. Димитрова, д. 22, к. 3, с 10 до 21",
      "longitude": 30.394363,
      "latitude": 59.850816
    },
    {
      "name": "Зоомагазин",
      "address": "г.Спб, ул. Типанова, д. 40(подвал), с 10 до 19",
      "longitude": 30.361826,
      "latitude": 59.852633
    },
    {
      "name": "Зоомагазин",
      "address": "г. Санкт-Петербург, проспект Космонавтов дом 28 , кор. 1, Литера А , пом. 17Н",
      "longitude": 30.350696,
      "latitude": 59.859777
    },
    {
      "name": "Доктор Неболит",
      "address": "г.Спб, Ланское ш., д. 22, корп.1, Лит А, с 11 до 19",
      "longitude": 30.305106,
      "latitude": 59.990206
    },
    {
      "name": "Зоомагазин",
      "address": "г. Спб, п. Горелово, Красносельское шоссе, 54, корп. 3, литер А , (2 этаж ), с 11 до 20",
      "longitude": 30.132738,
      "latitude": 59.780382
    },
    {
      "name": "Зоомагазин",
      "address": "ЛО, г. Выборг, пр. Ленина, д. 5А, с 10 до 19",
      "longitude": 28.749682,
      "latitude": 60.708554
    },
    {
      "name": "Зоомагазин",
      "address": "192281, г. Санкт-Петербург, ул. Пловдивская, д. 9, литер А, пом. 14Н; с 9 до 20.30",
      "longitude": 30.396833,
      "latitude": 59.843941
    },
    {
      "name": "Зоомагазин",
      "address": "г.Спб, пр.Наставников, д. 23, с 10 до 20",
      "longitude": 30.491444,
      "latitude": 59.946527
    },
    {
      "name": "Зоомагазин",
      "address": "г.Спб, ул. Кораблестроителей, д.16/3, пом.12Н (2-ой этаж), с 9 до 21",
      "longitude": 30.218751,
      "latitude": 59.937815
    },
    {
      "name": "Зоомагазин",
      "address": "г.Спб, ул. Варшавская, д. 23, к 1",
      "longitude": 30.312544,
      "latitude": 59.870651
    },
    {
      "name": "Зоомагазин",
      "address": "г. Спб, Шлиссельбургский пр., д. 17, корп. 1, Лит. А, с 10 до 20",
      "longitude": 30.494552,
      "latitude": 59.841202
    },
    {
      "name": "Зоомагазин",
      "address": "г.Спб, г.Петергоф, ул.Торговая , д.6(подвал), пн-пт с 10 до 19 , сб с 11 до 18",
      "longitude": 29.908572,
      "latitude": 59.884027
    },
    {
      "name": "Зоомагазин",
      "address": "187026, ЛО, Тосненский р-он, г. Никольское, ул. Комсомольская , д. 12",
      "longitude": 30.789864,
      "latitude": 59.704515
    },
    {
      "name": "Зоомагазин",
      "address": "ЛО, д. Куйвози, ул. Александрова, д. 1А, с 10 до 18",
      "longitude": 30.438695,
      "latitude": 60.318516
    },
    {
      "name": "Зоомагазин",
      "address": "г.Спб, В.О, 2-я линия , д. 41/13, литер А( 2-ой этаж), с 11 до 20",
      "longitude": 30.283672,
      "latitude": 59.944932
    },
    {
      "name": "Зоомагазин",
      "address": "г.Спб, ул. Учительская, д. 14, к. 2 (2 этаж) , с 9 до 20",
      "longitude": 30.39995,
      "latitude": 60.033531
    },
    {
      "name": "Зоомагазин",
      "address": "г.Спб, г.Пушкин, ул. Леонтьевская , д.42 (подвал), с 10 до 19",
      "longitude": 30.407748,
      "latitude": 59.723198
    },
    {
      "name": "Зоомагазин",
      "address": "г. Спб, Пулковское шоссе, д.22, к.3, с 10 до 18",
      "longitude": 30.327088,
      "latitude": 59.827189
    },
    {
      "name": "Зоомагазин",
      "address": "г.Спб, Индустриальный пр., д. 19, лит. А, пом. 128, с 10 до 20",
      "longitude": 30.47929,
      "latitude": 59.944373
    },
    {
      "name": "Зоомагазин",
      "address": "г.Спб, Индустриальный пр., д. 19, лит. А, пом. 128, с 10 до 20",
      "longitude": 30.47929,
      "latitude": 59.944373
    },
    {
      "name": "Зоомагазин",
      "address": "195197 г. Санкт-Петербург, ул. Богословская д. 4, корпус 1, стр. 1, пом. 62-Н",
      "longitude": 30.380394,
      "latitude": 59.984422
    },
    {
      "name": "Зоомагазин",
      "address": "196066, г. Санкт-Петербург, Московский пр., д. 224, лит. Б, пом. 2Н (подвал), с 10 до 21",
      "longitude": 30.324204,
      "latitude": 59.84485
    },
    {
      "name": "Зоомагазин",
      "address": "г.Спб, ул. Вербная, д.12., кор.1,пом.8Н, с 10 до 20",
      "longitude": 30.287347,
      "latitude": 60.023371
    },
    {
      "name": "Зоомагазин",
      "address": "г.Спб, п. Парголово, ул. Федора Абрамова, д. 18/1, Лит.А, с 10 до 21",
      "longitude": 30.341713,
      "latitude": 60.079895
    },
    {
      "name": "Зоомагазин",
      "address": "ЛО, пгт Вырица, Коммунальный пр., д. 5, с 10 до 17",
      "longitude": 30.343168,
      "latitude": 59.413682
    },
    {
      "name": "Зоомагазин",
      "address": "г.Санкт-Петербург г. Кронштадт пр.Ленина д.8 лит А",
      "longitude": 29.769082,
      "latitude": 59.998603
    },
    {
      "name": "Зоомагазин",
      "address": "ЛО, г. Сосновый Бор, пр. Героев, д.78 (2 этаж), с 11 до 18",
      "longitude": 29.078142,
      "latitude": 59.906192
    },
    {
      "name": "Зоомагазин",
      "address": "ЛО, г. Сосновый Бор, пр. Героев, д.78 (2 этаж), с 11 до 18",
      "longitude": 29.078142,
      "latitude": 59.906192
    },
    {
      "name": "Зоомагазин",
      "address": "192289, г. Санкт-Петербург, ул. Олеко Дундича, д. 40, лит.  А, пом. 1Н; с 10 до 19",
      "longitude": 30.426648,
      "latitude": 59.835491
    },
    {
      "name": "Зоомагазин",
      "address": "г.Спб., Красное село, ул. Лермонтова,  д.21 (ТЦ Красносельский 2 этаж) , с 11 до 18",
      "longitude": 30.080806,
      "latitude": 59.734321
    },
    {
      "name": "Зоомагазин",
      "address": "г.Спб, г. Петергоф, ул.Торговая , д.6, с 10 до 19",
      "longitude": 29.908572,
      "latitude": 59.884027
    },
    {
      "name": "Зоомагазин",
      "address": "Санкт-Петербург, пр. Металлистов, д.100,",
      "longitude": 30.405313,
      "latitude": 59.969443
    },
    {
      "name": "Зоомагазин",
      "address": "г.Спб, ул. Савушкина, д.131, пом. 26Н, Лит. А, с 11 до18.",
      "longitude": 30.214206,
      "latitude": 59.987942
    },
    {
      "name": "Зоомагазин",
      "address": "ЛО, пгт Вырица, Коммунальный пр, д. 6, с 10 до 17",
      "longitude": 30.342809,
      "latitude": 59.413142
    },
    {
      "name": "Зоомагазин",
      "address": "196608, г. Пушкин, ул.  Широкая, д.26, лит. Б",
      "longitude": 30.426361,
      "latitude": 59.722813
    },
    {
      "name": "Зоомагазин",
      "address": "ЛО, г. Тосно, ул. Советская, д.10, с 10 до 19",
      "longitude": 30.875249,
      "latitude": 59.539172
    },
    {
      "name": "Зоомагазин",
      "address": "ЛО, г.Тосно, пр.Ленина, д.135, с 9 до 19",
      "longitude": 30.88496,
      "latitude": 59.536293
    },
    {
      "name": "Зоомагазин",
      "address": "ЛО, г.Тосно, пр.Ленина, д.19, пом. II , с 9 до 21",
      "longitude": 30.864595,
      "latitude": 59.547013
    },
    {
      "name": "Зоомагазин",
      "address": "ЛО, г.Тосно, ул.Боярова, д.6",
      "longitude": 30.881214,
      "latitude": 59.543209
    },
    {
      "name": "Зоомагазин",
      "address": "Тосно, ул. Советская, д,2 -В",
      "longitude": 30.88213,
      "latitude": 59.542506
    },
    {
      "name": "Зоомагазин",
      "address": "г.Спб, ул. Разъезжая, д.43/1( подвал); с 10 до 19",
      "longitude": 30.352852,
      "latitude": 59.921376
    },
    {
      "name": "Зоомагазин",
      "address": "ЛО, г. Гатчина, ул. Красная, д. 7/5, с 10 до 19",
      "longitude": 30.122515,
      "latitude": 59.566017
    },
    {
      "name": "Зоомагазин",
      "address": "№1 г.Спб, ул. Караваевская, д.24, к.1(отдел \"Зоотовары\" в ТК) , с 11 до 21",
      "longitude": 30.507227,
      "latitude": 59.833398
    },
    {
      "name": "Зоомагазин",
      "address": "№3 г.Спб, пр. Большевиков, д. 24(в маг-не \"7 шагов\"), с 10 до 21",
      "longitude": 30.490617,
      "latitude": 59.900064
    },
    {
      "name": "Зоомагазин",
      "address": "№4 г.Спб, ул. Ленская, д.18(м-н \"7 шагов\") , с 11 до 21",
      "longitude": 30.497516,
      "latitude": 59.940339
    },
    {
      "name": "Зоомагазин",
      "address": "№5 г.Спб, ул.Бухарестская , д.144(м-н \"Пятерочка\"), с 11 до 21",
      "longitude": 30.419677,
      "latitude": 59.833836
    },
    {
      "name": "Зоомагазин",
      "address": "г. Спб, ул. Маршала Захарова, д.18",
      "longitude": 30.172057,
      "latitude": 59.857992
    },
    {
      "name": "Зоомагазин",
      "address": "г. Санкт-Петербург, ул. Крыленко д.1 кор. 1 строение 4 ,с 10-00 до 21-00",
      "longitude": 30.450202,
      "latitude": 59.89255
    },
    {
      "name": "Зоомагазин",
      "address": "г.Сестрорецк, ул.Токарева 13А",
      "longitude": 29.955069,
      "latitude": 60.089606
    },
    {
      "name": "Зоомагазин",
      "address": "г. Спб , г. Петергоф, ул. Парковая, д 18 , пом 214, с 11 до 20",
      "longitude": 29.935683,
      "latitude": 59.858598
    },
    {
      "name": "Зоомагазин",
      "address": "г.Спб, Заневский пр., д. 24/35, с 10 до 21",
      "longitude": 30.416201,
      "latitude": 59.930124
    },
    {
      "name": "Аквин",
      "address": "г.Спб, б-р Новаторов, д. 8, с 11 до 20",
      "longitude": 30.26938,
      "latitude": 59.850595
    },
    {
      "name": "Аквин",
      "address": "г.Спб, Выборгское ш., д.19 , корп.1 (\"Animal land\" на 1 этаже в О'Кей) , с 10 до 21",
      "longitude": 30.309894,
      "latitude": 60.056467
    },
    {
      "name": "Аквин",
      "address": "г.Спб, Выборгское ш., д.19 , корп.1 (\"Animal land\" на 1 этаже в О'Кей) , с 10 до 21",
      "longitude": 30.309894,
      "latitude": 60.056467
    },
    {
      "name": "Аквин",
      "address": "г.Спб, г.Сестрорецк, Приморское ш., д. 268 (О\"кей), с 10 до 21",
      "longitude": 29.95444,
      "latitude": 60.083504
    },
    {
      "name": "Аквин",
      "address": "г.Спб, г.Сестрорецк, Приморское ш., д. 268 (О\"кей), с 10 до 21",
      "longitude": 29.95444,
      "latitude": 60.083504
    },
    {
      "name": "Аквин",
      "address": "г.Спб, Индустриальный пр., д. 25 (м-н \"Окей\"),  с 10 до 21",
      "longitude": 30.477466,
      "latitude": 59.947023
    },
    {
      "name": "Аквин",
      "address": "г.Спб, Ленинский пр. д.119 с 10 до 20",
      "longitude": 30.257343,
      "latitude": 59.851245
    },
    {
      "name": "Аквин",
      "address": "г.Спб, Ленинский пр. д.119 с 10 до 20",
      "longitude": 30.257343,
      "latitude": 59.851245
    },
    {
      "name": "Аквин",
      "address": "г.Спб, Лиговский пр., д.78 , будни 10 до 14, сб с 11 до 14",
      "longitude": 30.355268,
      "latitude": 59.921696
    },
    {
      "name": "Аквин",
      "address": "г.Спб, ул. Малая Балканская , д.27 (\"Animal land\" на 1 этаже в О'Кей), с 10 до 21",
      "longitude": 30.382909,
      "latitude": 59.829554
    },
    {
      "name": "Аквин",
      "address": "г.Спб, ул. Малая Балканская , д.27 (\"Animal land\" на 1 этаже в О'Кей), с 10 до 21",
      "longitude": 30.382909,
      "latitude": 59.829554
    },
    {
      "name": "Зоомагазин",
      "address": "ЛО, г. Гатчина, пр. 25 Октября, д.52б, пом.8, с 10 до 20",
      "longitude": 30.13696,
      "latitude": 59.580286
    },
    {
      "name": "Зоомагазин",
      "address": "г.Спб, г.Пушкин, ул. Полковая, д.1/25  (3 этаж в м-не \"Идея\") , с 10 до 15",
      "longitude": 30.381499,
      "latitude": 59.702209
    },
    {
      "name": "Зоомагазин",
      "address": "г.Спб, г.Пушкин,Московская ул.,д.29, с 10 до 19",
      "longitude": 30.408628,
      "latitude": 59.71853
    },
    {
      "name": "Зоомагазин",
      "address": "г.Спб, ул. Бухарестская, д.74/3, лит.А, с 11 до 20",
      "longitude": 30.381625,
      "latitude": 59.871346
    },
    {
      "name": "Зоомагазин",
      "address": "ЛО, г. Тихвин, 2 микрорайон, д. 1 А",
      "longitude": 33.548698,
      "latitude": 59.643199
    },
    {
      "name": "Зоомагазин",
      "address": "г.Спб, п. Горелово, Аннинское ш, 26А (2 этаж в ТЦ), с 11 до 19",
      "longitude": 30.104953,
      "latitude": 59.783154
    },
    {
      "name": "Зоомагазин",
      "address": "г.Спб, ул. Конная, д. 22/5, с 10 до 20",
      "longitude": 30.377546,
      "latitude": 59.928081
    },
    {
      "name": "Зоомагазин",
      "address": "ЛО, г. Гатчина, ул. Чехова, д. 23",
      "longitude": 30.142412,
      "latitude": 59.571249
    },
    {
      "name": "Зоомагазин",
      "address": "ЛО, г.Гатчина, ул. Урицкого, д. 11А (ТЦ\"Блеск\" -цоколь), с 9 до 20",
      "longitude": 30.131704,
      "latitude": 59.563966
    },
    {
      "name": "Зоомагазин",
      "address": "№1 ЛО, г.Гатчина, пр. 25 Октября, д.59 , с 11 до 19",
      "longitude": 30.135262,
      "latitude": 59.577556
    },
    {
      "name": "Зоомагазин",
      "address": "№2 ЛО, г.Гатчина, пр. 25 Октября, д.22 \"Цветы \" и \"Зоотовары\") , с 10 до 20",
      "longitude": 30.123,
      "latitude": 59.570557
    },
    {
      "name": "Зоомагазин",
      "address": "г.Спб, пр. Энергетиков д.8, корп.1, лит.А, с 10-00 до 21-00",
      "longitude": 30.434634,
      "latitude": 59.937851
    },
    {
      "name": "Зоомагазин",
      "address": "ЛО, г. Отрадное, ул. Лесная д.5 , с 10 до 19(обед с 14 до 15)",
      "longitude": 30.797347,
      "latitude": 59.770326
    },
    {
      "name": "Зоомагазин",
      "address": "№1 Спб, п. Шушары, Славянка, ул. Ростовская, д. 13-15, литера А, с 10 до 20",
      "longitude": 30.471142,
      "latitude": 59.739028
    },
    {
      "name": "Зоомагазин",
      "address": "№2 Спб, п.Шушары,Славянка, ул. Ростовская, д.19/3, литера  А, с 10 до 20",
      "longitude": 30.477987,
      "latitude": 59.741944
    },
    {
      "name": "Зоомагазин",
      "address": "г.Спб, Пискаревский пр., д. 59 (ТЦ \"Лента), с 11 до 20",
      "longitude": 30.439377,
      "latitude": 59.98967
    },
    {
      "name": "Зоомагазин",
      "address": "г. Спб, ул. Маршала Казакова д.78, корп.1, с 11 до 20 (рядом с универсамом Волна)",
      "longitude": 30.165805,
      "latitude": 59.868803
    },
    {
      "name": "Зоомагазин",
      "address": "г.Спб, ул. Туристская, д.24/42 (вход со стороны ул. Оптиков) , с 11 до 18",
      "longitude": 30.208034,
      "latitude": 60.000393
    },
    {
      "name": "Зоомагазин",
      "address": "г.Спб, ул. Народная, д.39, лит. Б (в здании с  маг. \" Лайм\" вход справа), с 10  до 21",
      "longitude": 30.471861,
      "latitude": 59.881882
    },
    {
      "name": "Зоомагазин",
      "address": "г. Спб, Пулковское ш.,  д.22, корп.3, с 10  до 20",
      "longitude": 30.32619,
      "latitude": 59.827094
    },
    {
      "name": "Зоомагазин",
      "address": "г.Спб,  Английский пр., д.39 с 11 до 20",
      "longitude": 30.287877,
      "latitude": 59.919441
    },
    {
      "name": "Зоомагазин",
      "address": "г.Спб, ул.Большая Пороховская,  д. 29 , с 11 до 20",
      "longitude": 30.41939,
      "latitude": 59.953187
    },
    {
      "name": "Зоомагазин",
      "address": "ЛО, г. Светогорск, ул. Лесная, д.8А , с 10 до 20",
      "longitude": 28.873776,
      "latitude": 61.110375
    },
    {
      "name": "Зоомагазин",
      "address": "ЛО, Новое Девяткино, ул.Главная д.61",
      "longitude": 30.477062,
      "latitude": 60.058188
    },
    {
      "name": "Зоомагазин",
      "address": "г.Спб, пр.Большевиков, д. 47, к1 пом 20 Н, доставка  с 9-00 до 15.00",
      "longitude": 30.488515,
      "latitude": 59.889322
    },
    {
      "name": "Зоомагазин",
      "address": "г.Спб, пр.Большевиков, д. 47, к1 пом 20 Н, доставка  с 9-00 до 15.00",
      "longitude": 30.488515,
      "latitude": 59.889322
    },
    {
      "name": "Зоомагазин",
      "address": "№1 г.Спб, г. Пушкин, ул Ленинградская, д.35, с 10 до 20",
      "longitude": 30.416947,
      "latitude": 59.7272
    },
    {
      "name": "Зоомагазин",
      "address": "№4 г.Спб, г. Пушкин, п. Детскосельский, с-з \"Славянка\" Колпинское ш., д. 34, с 10 до 19",
      "longitude": 30.451397,
      "latitude": 59.725961
    },
    {
      "name": "Зоомагазин",
      "address": "№5 г.Спб, г. Пушкин, Павловское шоссе, д. 21, корп. 1 (въезд с ул. Артиллерийская), с 10 до 20",
      "longitude": 30.415132,
      "latitude": 59.707742
    },
    {
      "name": "Зоомагазин",
      "address": "№5 г.Спб, г. Пушкин, Павловское шоссе, д. 21, корп. 1 (въезд с ул. Артиллерийская), с 10 до 20",
      "longitude": 30.415132,
      "latitude": 59.707742
    },
    {
      "name": "Зоомагазин",
      "address": "г.Спб, ул. Казначейская, д.4/16 (\"Гастрономчик\"), с 10 до 21",
      "longitude": 30.313568,
      "latitude": 59.926886
    },
    {
      "name": "Зоомагазин",
      "address": "г.Спб,  Ковалёвская ул. д.26, стр. 1,с 11-21",
      "longitude": 30.512482,
      "latitude": 59.979326
    },
    {
      "name": "Зоомагазин",
      "address": "г.Спб, пр. Просвещения, д 75 (маг. Дикси) , с 11 до 21",
      "longitude": 30.401531,
      "latitude": 60.038555
    },
    {
      "name": "Зоомагазин",
      "address": "г. Спб, Богатырский пр. д.7 , корп.2, пом. 2-Н,лит.А",
      "longitude": 30.288362,
      "latitude": 60.000344
    },
    {
      "name": "Зоомагазин",
      "address": "г.СПб, ул.Карпинского д.15",
      "longitude": 30.423163,
      "latitude": 60.0059
    },
    {
      "name": "Зоомагазин",
      "address": "г.Спб, Загребский бульвар, д. 9",
      "longitude": 30.398756,
      "latitude": 59.844985
    },
    {
      "name": "Зоомагазин",
      "address": "ЛО, г. Тосно, ул. Ленина, д.43(2 этаж), с 10 до 19",
      "longitude": 30.873596,
      "latitude": 59.542128
    },
    {
      "name": "Зоомагазин",
      "address": "г.Спб, Новоизмайловский пр., д.3, с 12 до 21",
      "longitude": 30.304531,
      "latitude": 59.873555
    },
    {
      "name": "Зоомагазин",
      "address": "г.Спб, б-р  Новаторов, д. 8(цоколь) с 10 до 19",
      "longitude": 30.26938,
      "latitude": 59.850595
    },
    {
      "name": "Зоомагазин",
      "address": "Товарищеский пр-т д.20/27, с 11 до 20",
      "longitude": 30.486548,
      "latitude": 59.915025
    },
    {
      "name": "Зоомагазин",
      "address": "г.Спб, ул. Парашютная, д. 27, корп. 2, с 11 до 20",
      "longitude": 30.268635,
      "latitude": 60.020044
    },
    {
      "name": "Зоомагазин",
      "address": "ЛО, г.Приозерск, ул.Жуковского,  д.7,  с 9 до 19",
      "longitude": 30.117897,
      "latitude": 61.035021
    },
    {
      "name": "Зоомагазин",
      "address": "ЛО, г.Приозерск, ул.Ленина, д.30 (маг.для животных) , с 9 до 19",
      "longitude": 30.122173,
      "latitude": 61.038558
    },
    {
      "name": "Зоомагазин",
      "address": "г.Спб, ул.Лёни Голикова , д.47, корп.1 , с 10 до 21",
      "longitude": 30.235469,
      "latitude": 59.841536
    },
    {
      "name": "Зоомагазин",
      "address": "г.Санкт-Петербург, пос.Парголово, ул.Николая Рубцова, д.5, стр.1",
      "longitude": 30.343797,
      "latitude": 60.075986
    },
    {
      "name": "Зоомагазин",
      "address": "г.Спб, пр.Энгельса, д145,  к.1",
      "longitude": 30.338515,
      "latitude": 60.055538
    },
    {
      "name": "Зоомагазин",
      "address": "г.Спб, Сиреневый б-р, д.18,  с 10-00до 21-00",
      "longitude": 30.364081,
      "latitude": 60.051872
    },
    {
      "name": "Зоомагазин",
      "address": "г.Спб, Чкаловский пр., д.52 (рядом \"Север\"), с 10 до 20",
      "longitude": 30.301342,
      "latitude": 59.967813
    },
    {
      "name": "Зоомагазин",
      "address": "г.Спб, В.О. 9-я линия, д.76, с 10 до 20",
      "longitude": 30.269515,
      "latitude": 59.94764
    },
    {
      "name": "Зоомагазин",
      "address": "г.Спб, Сиреневый б-р, д.18 (ун-м Суздалец), с 10 до 20",
      "longitude": 30.364081,
      "latitude": 60.051872
    },
    {
      "name": "Зоомагазин",
      "address": "г.Спб, ул.Карпинского, д.20 / Науки, с 10 до 20",
      "longitude": 30.423262,
      "latitude": 60.007492
    },
    {
      "name": "Зоомагазин",
      "address": "г.Спб, ул.Торжковская, д. 2, с 10 до 20",
      "longitude": 30.304136,
      "latitude": 59.987271
    },
    {
      "name": "Зоомагазин",
      "address": "Спб, ул.Одоевского д. 29 , лит. А , с 9-00 до 21-00",
      "longitude": 30.234876,
      "latitude": 59.948235
    },
    {
      "name": "Зоомагазин",
      "address": "г.Выборг, ул.Ушакова, д.4",
      "longitude": 28.74882,
      "latitude": 60.71072
    },
    {
      "name": "Зоомагазин",
      "address": "г.Спб, г Зеленогорск, ул. Вокзальная, д. 7 (1 этаж в ТЦ) , с 10 до 20",
      "longitude": 29.703451,
      "latitude": 60.205983
    },
    {
      "name": "Зоомагазин",
      "address": "ЛО, п. Рощино, ул. Железнодорожная, д.49, с 11 до 19",
      "longitude": 29.592212,
      "latitude": 60.256734
    },
    {
      "name": "Зоомагазин",
      "address": "г.Спб, Московский пр., д. 76 (под аркой), с 11 до 21",
      "longitude": 30.319021,
      "latitude": 59.905917
    },
    {
      "name": "Зоомагазин",
      "address": "№1 ЛО, г.Тихвин, 1-микрорайон , д.9, с 10 до 19",
      "longitude": 33.553181,
      "latitude": 59.643868
    },
    {
      "name": "Зоомагазин",
      "address": "№10 ЛО, г. Кировск, ул. Набережная, д.5 , с 11 до 19",
      "longitude": 30.98832,
      "latitude": 59.886036
    },
    {
      "name": "Зоомагазин",
      "address": "№12 ЛО, г.Тихвин, 5-ый микрорайон, д.51А ( м-н \"Пятерочка\", 2 этаж), с 11 до 19",
      "longitude": 33.522818,
      "latitude": 59.645109
    },
    {
      "name": "Зоомагазин",
      "address": "№13 ЛО, г. Кировск, ул. Набережная, д.15 , с 11 до 19",
      "longitude": 30.985499,
      "latitude": 59.88274
    },
    {
      "name": "Зоомагазин",
      "address": "№14 СПб, Ленинский пр., д.122",
      "longitude": 30.260128,
      "latitude": 59.85256
    },
    {
      "name": "Зоомагазин",
      "address": "№15 ЛО, д.Новое Девяткино, Главная ул., д.50 (около Пятерочка)",
      "longitude": 30.219811,
      "latitude": 59.959264
    },
    {
      "name": "Зоомагазин",
      "address": "№2 г.Спб, Морская наб., д.35 , к.1,литер А (вход со стороны \"Перекрестка\"), с 10 до 19",
      "longitude": 30.219811,
      "latitude": 59.959264
    },
    {
      "name": "Зоомагазин",
      "address": "№3 ЛО, г.Тихвин, ул. Советская, 18 (ТК \"Астрал\" ) , с 10 до 20",
      "longitude": 33.507034,
      "latitude": 59.642481
    },
    {
      "name": "Зоомагазин",
      "address": "№4 ЛО, г.Тихвин , 4-ый микрорайон, д.5 , с 10 до 19",
      "longitude": 33.537047,
      "latitude": 59.645205
    },
    {
      "name": "Зоомагазин",
      "address": "№5 г.Спб, ул. Кораблестроителей, д.31(справа от \"Перекрестка\", м-н \"Зооленд\"), с 10 до 20",
      "longitude": 30.22018,
      "latitude": 59.953606
    },
    {
      "name": "Зоомагазин",
      "address": "№7 ЛО, г. Шлиссельбург, ул. 1 мая, д.8 (1 этаж ), с 10 до 19",
      "longitude": 31.037377,
      "latitude": 59.943169
    },
    {
      "name": "Зоомагазин",
      "address": "№8 ЛО г. Всеволожск, мкр. Южный, ул. Крымская, д.6, с 10 до 19",
      "longitude": 30.650859,
      "latitude": 59.98733
    },
    {
      "name": "Зоомагазин",
      "address": "№9 ЛО, г. Всеволожск, мкр. Южный, ул. Невская, д.13(подвал),  с 10 до 21",
      "longitude": 30.646089,
      "latitude": 59.990561
    },
    {
      "name": "Зоомагазин",
      "address": "ЛО, Всеволожский р-н, г.п.им.Морозова, ул.Мира, д.7",
      "longitude": 31.02834,
      "latitude": 59.973208
    },
    {
      "name": "Зоомагазин",
      "address": "г.Спб, пр. Космонавтов, д. 61, с 10 до 20",
      "longitude": 30.356625,
      "latitude": 59.839637
    },
    {
      "name": "Зоомагазин",
      "address": "г. Спб, ул. Замшина д.19 (вход  в начале дома зоомагазин \" Лева\")  с 10-00 до 20-00",
      "longitude": 30.402268,
      "latitude": 59.974788
    },
    {
      "name": "Зоомагазин",
      "address": "г.Спб, Серебристый бульвар, д. 21(подвал  в \"ГУФИ\"), с 11 до 20",
      "longitude": 30.283933,
      "latitude": 60.007074
    },
    {
      "name": "Зоомагазин",
      "address": "г. Спб.,Российский пр., д.14 , (в здании маг. \"Полушка\")с 10-00 до 20-00",
      "longitude": 30.472355,
      "latitude": 59.929682
    },
    {
      "name": "Зоомагазин",
      "address": "г.СПб, Загородный пр., д.36, пом. 1Н, лит.А",
      "longitude": 30.344884,
      "latitude": 59.927297
    },
    {
      "name": "Зоомагазин",
      "address": "г.Спб, пр. Маршала Жукова, 35 корпус 1",
      "longitude": 30.224482,
      "latitude": 59.855877
    },
    {
      "name": "Зоомагазин",
      "address": "г.Спб, ул. Партизанская, дом 11 (территория комбината пищевой ароматики)",
      "longitude": 30.427996,
      "latitude": 59.945224
    },
    {
      "name": "Зоомагазин",
      "address": "Спб., ул.Бестужевская д.10",
      "longitude": 30.393779,
      "latitude": 59.987294
    },
    {
      "name": "Зоомагазин",
      "address": "г.Спб, ул. Казакова. д.34, корп.1 , с 11 до 20",
      "longitude": 30.214592,
      "latitude": 59.858891
    },
    {
      "name": "Зоомагазин",
      "address": "г.СПб, пос. Парголово ул. Федора Абрамова д. 8",
      "longitude": 30.338317,
      "latitude": 60.073759
    },
    {
      "name": "Зоомагазин",
      "address": "г.Спб, пр.Культуры, д.22, корп.1",
      "longitude": 30.37442,
      "latitude": 60.046998
    },
    {
      "name": "Зоомагазин",
      "address": "г.Спб, Коллонтай , д. 5 к.1, с 10-00 до 22-00",
      "longitude": 30.449996,
      "latitude": 59.913144
    },
    {
      "name": "Зоомагазин",
      "address": "г.Спб, Коллонтай , д. 5 к.1, с 10-00 до 22-00",
      "longitude": 30.449996,
      "latitude": 59.913144
    },
    {
      "name": "Зоомагазин",
      "address": "г.Спб, пр. Большевиков , д. 9,к.1, лит А с 10 до 20",
      "longitude": 30.473747,
      "latitude": 59.915048
    },
    {
      "name": "Зоомагазин",
      "address": "г.Спб, пр. Просвещения, д. 75 (маг.\" Дикси\") , с 11 до 22",
      "longitude": 30.401531,
      "latitude": 60.038555
    },
    {
      "name": "Зоомагазин",
      "address": "г.Спб, пр.Пятилеток д. 15 к. 8, с 10 до 22",
      "longitude": 30.452646,
      "latitude": 59.924713
    },
    {
      "name": "Зоомагазин",
      "address": "г.Спб, ул. Латышских стрелков д.13, к.1,лит А (2-й этаж в ТЦ\" Спар\"), с 10 до 22",
      "longitude": 30.46012,
      "latitude": 59.929182
    },
    {
      "name": "Зоомагазин",
      "address": "г.Спб, ул.Бадаева,  д.6 к.1 лит.А , с 10 до 21",
      "longitude": 30.45004,
      "latitude": 59.917696
    },
    {
      "name": "Зоомагазин",
      "address": "г.Спб, ул.Бадаева,  д.6 к.1 лит.А , с 10 до 21",
      "longitude": 30.45004,
      "latitude": 59.917696
    },
    {
      "name": "Зоомагазин",
      "address": "г.Спб, пр. Науки, д. 12, лит.А, пом. 6Н, с 10 до 21",
      "longitude": 30.394938,
      "latitude": 60.014185
    },
    {
      "name": "Зоомагазин",
      "address": "г.Спб, пр. Науки, д. 12, лит.А, пом. 6Н, с 10 до 21",
      "longitude": 30.394938,
      "latitude": 60.014185
    },
    {
      "name": "Зоомагазин",
      "address": "г. СПб, проспект Маршала Жукова д.76 к1",
      "longitude": 30.190517,
      "latitude": 59.827555
    },
    {
      "name": "Зоомагазин",
      "address": "г.Спб, пр. Ветеранов, д.115 , с 10:00 до 20:30",
      "longitude": 30.180627,
      "latitude": 59.83357
    },
    {
      "name": "Зоомагазин",
      "address": "г.Спб, ул. Доблести, д .26, к.1 (подвал) , с 10 до 20",
      "longitude": 30.176944,
      "latitude": 59.852669
    },
    {
      "name": "Зоомагазин",
      "address": "г.Спб, ул. Партизана Германа 22",
      "longitude": 30.177563,
      "latitude": 59.829427
    },
    {
      "name": "Зоомагазин",
      "address": "г.Спб, ул. Пионерстроя, д.4(в универсаме \"Бриз\"), с 11 до 20",
      "longitude": 30.131264,
      "latitude": 59.842029
    },
    {
      "name": "Зоомагазин",
      "address": "г.Спб, Лиговский пр., д. 153 (2 этаж), с 11 до 19",
      "longitude": 30.349133,
      "latitude": 59.914615
    },
    {
      "name": "Зоомагазин",
      "address": "г.Спб, пр.Ветеранов, д.101 (3 этаж), с 11 до 21",
      "longitude": 30.204836,
      "latitude": 59.834135
    },
    {
      "name": "Зоомагазин",
      "address": "ЛО, г. Выборг, ул. Мира , д.16 , с 10 до 20",
      "longitude": 28.75659,
      "latitude": 60.708277
    },
    {
      "name": "Зоомагазин",
      "address": "г.Спб, пос. Песочный, ул. Ленинградская, д.40 (м-н \"Муся и Пуся\", 1 этаж), с 10 до 19",
      "longitude": 30.164655,
      "latitude": 60.121981
    },
    {
      "name": "Зоомагазин",
      "address": "№1 г.Спб, г. Петродворец, ул. Шахматова, д. 14, кор.1, (м-н Дикси 2 этаж), с 11 до 20",
      "longitude": 29.866414,
      "latitude": 59.869124
    },
    {
      "name": "Зоомагазин",
      "address": "№3 г.Спб,г.Ломоносов, ул.Красного флота, д.23, с 11 до 20",
      "longitude": 29.778496,
      "latitude": 59.905425
    },
    {
      "name": "Зоомагазин",
      "address": "ЛО, п. Тайцы, ул. Юного Ленинца, д. 43 А, с 10 до 19",
      "longitude": 30.114133,
      "latitude": 59.66449
    },
    {
      "name": "Зоомагазин",
      "address": "ЛО, г.Сертолово, Восточно-Выборгское ш., д25А",
      "longitude": 30.208187,
      "latitude": 60.141976
    },
    {
      "name": "Зоомагазин",
      "address": "188260,  ЛО, г. Луга, ул. Яковлева,  д. 5",
      "longitude": 29.849966,
      "latitude": 58.74111
    },
    {
      "name": "Зоомагазин",
      "address": "ЛО, г. Луга, пр. Кирова, д. 61, с 10 до 18",
      "longitude": 29.85019,
      "latitude": 58.738897
    },
    {
      "name": "Зоомагазин",
      "address": "Санкт-Петербург, проспект Ветеранов, дом 171, корпус 5, стр.1, пом.328Н",
      "longitude": 30.113127,
      "latitude": 59.841975
    },
    {
      "name": "Зоомагазин",
      "address": "г.Спб, Светлановский пр., д 46, к.1, с 10 до 20",
      "longitude": 30.380331,
      "latitude": 60.024374
    },
    {
      "name": "Зоомагазин",
      "address": "г.Спб, Фонарный пер. д. 14, лит А, пн-пт с 10 до 20, сб с 13 до 20",
      "longitude": 30.305735,
      "latitude": 59.927865
    },
    {
      "name": "Зоомагазин",
      "address": "г. Спб, пр-т Пятилеток д.10 к.1 с 10-00 до 21-00",
      "longitude": 30.457452,
      "latitude": 59.922368
    },
    {
      "name": "Зоомагазин",
      "address": "г. Спб, пр-т Пятилеток д.10 к.1 с 10-00 до 21-00",
      "longitude": 30.457452,
      "latitude": 59.922368
    },
    {
      "name": "Зоомагазин",
      "address": "г.Спб, пр.Стачек, д.105 (2-й этаж), с 10 до 20",
      "longitude": 30.242359,
      "latitude": 59.854581
    },
    {
      "name": "Зоомагазин",
      "address": "г. Спб, Сытнинская пл., д. 3/5  место 83 ( Сытный рынок) , с 10 до 18",
      "longitude": 30.311152,
      "latitude": 59.957169
    },
    {
      "name": "Зоомагазин",
      "address": "г.Спб, Красное Село, ул. Театральная, д. 6, с 11 до 20",
      "longitude": 30.082306,
      "latitude": 59.72353
    },
    {
      "name": "Зоомагазин",
      "address": "г.Спб., Ленинский пр., д. 93, с 10 до 20",
      "longitude": 30.210208,
      "latitude": 59.85393
    },
    {
      "name": "Зоомагазин",
      "address": "г.СПб, п. Ленсоветовский(Шушары), д.11 корп. 4  (ТК \"Оазис\" 2 этаж), с 10 до 20",
      "longitude": 30.4731,
      "latitude": 59.759156
    },
    {
      "name": "Зоомагазин",
      "address": "г.Спб, пр.Просвещения, д. 24/2 , Лит.А , Пом 59-Н,",
      "longitude": 30.321429,
      "latitude": 60.056122
    },
    {
      "name": "Зоомагазин",
      "address": "№1 г.Спб, ул.Тамбасова , д.32, с 10 до 20",
      "longitude": 30.156884,
      "latitude": 59.828469
    },
    {
      "name": "Зоомагазин",
      "address": "№1 г.Спб, ул.Тамбасова , д.32, с 10 до 20",
      "longitude": 30.156884,
      "latitude": 59.828469
    },
    {
      "name": "Зоомагазин",
      "address": "№2 г.Спб, ул. Пограничника Гарькавого, д.36, корп.7  (ТЦ \"Виктория\" место 7), с 10 до 20",
      "longitude": 30.147847,
      "latitude": 59.832308
    },
    {
      "name": "Зоомагазин",
      "address": "№3 г.Спб, ул.Партизана Германа,  д.5 (магазин Пятерочка , 2 этаж) , с 11 до 19",
      "longitude": 30.174078,
      "latitude": 59.841165
    },
    {
      "name": "Зоомагазин",
      "address": "№4 г.СПб, проспект Ветеранов д.53/56 лит.И, место 8",
      "longitude": 30.23855,
      "latitude": 59.840826
    },
    {
      "name": "Зоомагазин",
      "address": "пгт им.Свердлова, Западный проезд, 10",
      "longitude": 30.636126,
      "latitude": 59.800263
    },
    {
      "name": "Зоомагазин",
      "address": "ЛО, п.Разметелево, д. 4а (маг. Магнит) , с 11 до 19",
      "longitude": 30.671906,
      "latitude": 59.903688
    },
    {
      "name": "Зоомагазин",
      "address": "г.Спб, г. Петергоф, Мастеровой пер., д. 3А (рынок \"Ракета\"), с 11 до 19",
      "longitude": 29.893902,
      "latitude": 59.88069
    },
    {
      "name": "Зоомагазин",
      "address": "г.Спб, г. Петергоф, Мастеровой пер., д. 3А (рынок \"Ракета\"), с 11 до 19",
      "longitude": 29.893902,
      "latitude": 59.88069
    },
    {
      "name": "Зоомагазин",
      "address": "СПб, г. Петергоф, ул. Чичеринская, д. 2 (11-19)",
      "longitude": 29.849086,
      "latitude": 59.870628
    },
    {
      "name": "Зоомагазин",
      "address": "СПб, г. Петергоф, ул. Чичеринская, д. 2 (11-19)",
      "longitude": 29.849086,
      "latitude": 59.870628
    },
    {
      "name": "Зоомагазин",
      "address": "ЛО, п. Сертолово, ул. Сосновая, д.11(въезд с Центральной), с 12 до 21",
      "longitude": 30.214547,
      "latitude": 60.138943
    },
    {
      "name": "Зоомагазин",
      "address": "ЛО, г. Сертолово, мкр Черная Речка, д. 29 А (м-н \"Полушка\", 2 этаж), с 11 до 19",
      "longitude": 30.15524,
      "latitude": 60.175839
    },
    {
      "name": "Зоомагазин",
      "address": "г. СПб, ул. Орджоникидзе д.52, литер А, пом. 56-Н  с10-19",
      "longitude": 30.361772,
      "latitude": 59.844036
    },
    {
      "name": "Зоомагазин",
      "address": "ЛО, п. Горелово, Красносельское шоссе, д. 54, корп. 3",
      "longitude": 30.080806,
      "latitude": 59.792101
    },
    {
      "name": "Зоомагазин",
      "address": "г.Спб, ул. Коллонтай, 30 лит.А  , с 10 до 20",
      "longitude": 30.482901,
      "latitude": 59.92401
    },
    {
      "name": "Зоомагазин",
      "address": "г. Спб, ул. Политехническая, д. 28, с 11 до 19",
      "longitude": 30.368518,
      "latitude": 60.007834
    },
    {
      "name": "Зоомагазин",
      "address": "г.Спб,Товарищеский пр., д.8, к.2( цоколь), с 11 до 20",
      "longitude": 30.482622,
      "latitude": 59.91876
    },
    {
      "name": "Зоомагазин",
      "address": "г.Спб, г. Зеленогорск, пр. Ленина, д.24А , с 10 до 20",
      "longitude": 29.704403,
      "latitude": 60.198127
    },
    {
      "name": "Зоомагазин",
      "address": "ЛО, п. Рощино, ул. Советская , д 2 , с 10  до 19",
      "longitude": 29.596497,
      "latitude": 60.258453
    },
    {
      "name": "Зоомагазин",
      "address": "г.СПб, ул.Ильюшина, д.1 , к. лит.А 1",
      "longitude": 30.255025,
      "latitude": 60.008675
    },
    {
      "name": "Зоомагазин",
      "address": "г.Спб, ул. Зины Портновой, д. 1/3 (в м-не Магнит)",
      "longitude": 30.255807,
      "latitude": 59.856695
    },
    {
      "name": "Зоомагазин",
      "address": "ЛО, г. Приморск, наб. Лебедева, д.20 (ТК \"Микс\", 1 этаж), с 10 до 20",
      "longitude": 28.610848,
      "latitude": 60.366477
    },
    {
      "name": "Зоомагазин",
      "address": "ЛО, г. Гатчина, ул. Генерала Кныша, д. 8А (рынок) , с 9 до 20",
      "longitude": 30.095637,
      "latitude": 59.56186
    },
    {
      "name": "Зоомагазин",
      "address": "ЛО, Малые Колпаны, микрорайон Речной, д.3, с 10 до 19",
      "longitude": 30.087175,
      "latitude": 59.54735
    },
    {
      "name": "Зоомагазин",
      "address": "г.Спб, г. Петергоф, Торговая пл., д. 8, с 10 до 18",
      "longitude": 29.914977,
      "latitude": 59.877728
    },
    {
      "name": "Зоомагазин",
      "address": "г.Спб, Кушелевская дорога, д.3, к.8, лит.А, с 10 до 21",
      "longitude": 30.367952,
      "latitude": 59.988572
    },
    {
      "name": "Зоомагазин",
      "address": "ЛО, пос. Сосново,  ул. Озерная, д.1 (2 этаж) с 10-20",
      "longitude": 30.254612,
      "latitude": 60.557303
    },
    {
      "name": "Зоомагазин",
      "address": "г.Спб, ул.Караваевская, д.24(подвал), с 10 до 21",
      "longitude": 30.507227,
      "latitude": 59.833398
    },
    {
      "name": "Зоомагазин",
      "address": "г. Всеволожск ,ул.Победы МПТ у дома №6 (по факту у дома№5)",
      "longitude": 30.607183,
      "latitude": 60.005239
    },
    {
      "name": "Зоомагазин",
      "address": "г.Спб, пр. Маршала Блюхера, д. 41 (м-н Карусель 2 этаж), с 11 до 19",
      "longitude": 30.407927,
      "latitude": 59.975274
    },
    {
      "name": "Зоомагазин",
      "address": "г.Спб, пр. Маршала Блюхера, д. 9, корп.1 ( 2 этаж), с 10 до 22",
      "longitude": 30.376738,
      "latitude": 59.980128
    },
    {
      "name": "Зоомагазин",
      "address": "г.Спб, ул.Есенина, д.3(подвал), с 11 до 21",
      "longitude": 30.329711,
      "latitude": 60.033517
    },
    {
      "name": "Зоомагазин",
      "address": "г.Спб, ул.Есенина, д.3(подвал), с 11 до 21",
      "longitude": 30.329711,
      "latitude": 60.033517
    },
    {
      "name": "Зоомагазин",
      "address": "г.Спб, Комендантский пр., д. 51, к. 1 (\"Зоомаркет\", подвал), с 11 до 19",
      "longitude": 30.238577,
      "latitude": 60.031
    },
    {
      "name": "Зоомагазин",
      "address": "г.Спб, Старый Петергоф, Университетский пр., уч.3(мини рынок напротив Петергофской д.10), с 9 до 20",
      "longitude": 29.859731,
      "latitude": 59.874205
    },
    {
      "name": "Зоомагазин",
      "address": "г.Спб, ул. Некрасова, д.8 , с 11 до 20",
      "longitude": 30.351343,
      "latitude": 59.939185
    },
    {
      "name": "Зоомагазин",
      "address": "СПб, Б-р Красных Зорь д. 5",
      "longitude": 30.442998,
      "latitude": 59.872493
    },
    {
      "name": "Зоомагазин",
      "address": "г.Спб, ул. Бронницкая , д. 18(подвал), с 10 до 21",
      "longitude": 30.322758,
      "latitude": 59.914529
    },
    {
      "name": "Зоомагазин",
      "address": "ЛО, г.Бугры, ул. Полевая, д.7",
      "longitude": 30.40207,
      "latitude": 60.067411
    },
    {
      "name": "Зоомагазин",
      "address": "ЛО, п.Мурино, пр-т Авиаторов Балтики, дом 11/1. помещение 11-Н",
      "longitude": 30.440159,
      "latitude": 60.055111
    },
    {
      "name": "Зоомагазин",
      "address": "г.Спб, ул. Солдата Корзуна, д. 40, с 10 до 21",
      "longitude": 30.221231,
      "latitude": 59.831074
    },
    {
      "name": "Зоомагазин",
      "address": "Спб, Ленинский 74, к 3 с 11 до 20",
      "longitude": 30.186475,
      "latitude": 59.861589
    },
    {
      "name": "Зоомагазин",
      "address": "ЛО, г. Сосновый Бор, пр. Героев, д. 76 А, пом 106 (2 этаж), с 10 до 19",
      "longitude": 29.077307,
      "latitude": 59.905786
    },
    {
      "name": "Зоомагазин",
      "address": "ЛО, г. Сосновый Бор, пр. Героев, д. 76 А, пом 106 (2 этаж), с 10 до 19",
      "longitude": 29.077307,
      "latitude": 59.905786
    },
    {
      "name": "Зоомагазин",
      "address": "ЛО, г. Сосновый Бор, ул. Солнечная, д 12 (ТЦ), с 10 до 19",
      "longitude": 29.085877,
      "latitude": 59.901138
    },
    {
      "name": "Зоомагазин",
      "address": "г.Спб, 8-я Советская д.42 с 10 до 21",
      "longitude": 30.378112,
      "latitude": 59.935363
    },
    {
      "name": "Зоомагазин",
      "address": "г.СПб, 8-я Советская ул. д.50 с 11 до 20",
      "longitude": 30.379855,
      "latitude": 59.934682
    },
    {
      "name": "Зоомагазин",
      "address": "г.Спб, Тихорецкий пр., д.9, корп.1, пом.1-Н , с 10  до 20",
      "longitude": 30.36895,
      "latitude": 60.014414
    },
    {
      "name": "Зоомагазин",
      "address": "г.Спб, п.Красное Село, ул. Лермонтова, д. 21(ТК \"Красносельский\"), с 10 до 20",
      "longitude": 30.080806,
      "latitude": 59.734321
    },
    {
      "name": "Зоомагазин",
      "address": "г. СПб, п. Шушары, Новгородский пр-т, д. 6, п.-6",
      "longitude": 30.367872,
      "latitude": 59.810093
    },
    {
      "name": "Зоомагазин",
      "address": "ЛО, г.Всеволожск, Всеволожский пр. 43",
      "longitude": 30.647158,
      "latitude": 60.017445
    },
    {
      "name": "Зоомагазин",
      "address": "ЛО г. Тосно, ул. Ленина, д. 53, с 10  до 20",
      "longitude": 30.877432,
      "latitude": 59.539988
    },
    {
      "name": "Зоомагазин",
      "address": "г.СПб, Ленинский пр., д.72 корп.1",
      "longitude": 30.182289,
      "latitude": 59.861498
    },
    {
      "name": "Зоомагазин",
      "address": "г.СПб, ул.Маршала Казакова, д.50, корп.1",
      "longitude": 30.197497,
      "latitude": 59.861236
    },
    {
      "name": "Зоомагазин",
      "address": "ЛО, п.Мурино, Воронцовский бул-р, д.8",
      "longitude": 30.421555,
      "latitude": 60.055394
    },
    {
      "name": "Зоомагазин",
      "address": "г. Спб, пр. Елизарова, д.11, лит. А (подвал), с 10 до 21",
      "longitude": 30.424519,
      "latitude": 59.896896
    },
    {
      "name": "Зоомагазин",
      "address": "г. Спб, ул. Бабушкина, д. 71/8 лит.А (подвал), с 10 до 21-00",
      "longitude": 30.443132,
      "latitude": 59.876748
    },
    {
      "name": "Зоомагазин",
      "address": "ЛО, г. Выборг, Московский пр., 14  Сытый кот",
      "longitude": 28.749323,
      "latitude": 60.707511
    },
    {
      "name": "Зоомагазин",
      "address": "п.Мурино, бул-р Менделеева, д.12 корп. 1, с 11 до 21",
      "longitude": 30.431257,
      "latitude": 60.053692
    },
    {
      "name": "Зоомагазин",
      "address": "г.Спб, пр.Ветеранов, д.147 (2 эт), с 10 до 20",
      "longitude": 30.135954,
      "latitude": 59.83607
    },
    {
      "name": "Зоомагазин",
      "address": "г. Спб, ул. Пражская, д 26, корп. 1 с 11 до 20",
      "longitude": 30.392,
      "latitude": 59.872656
    },
    {
      "name": "Зоомагазин",
      "address": "г. Спб, ул. Пражская, д 26, корп. 1 с 11 до 20",
      "longitude": 30.392,
      "latitude": 59.872656
    },
    {
      "name": "Зоомагазин",
      "address": "г.Спб, п.Красное село, ул.Свободы , д.10(напротив \"Пятерочки\" ),с 9 до 17",
      "longitude": 30.082207,
      "latitude": 59.728542
    },
    {
      "name": "Зоомагазин",
      "address": "г.Спб, Дачный пр., д.9 (2 этаж  рядом с пабом), с 11 до 20",
      "longitude": 30.244362,
      "latitude": 59.846549
    },
    {
      "name": "Зоомагазин",
      "address": "ЛО, д.Кудрово, ул Ленинградская, д.7 (2-й двор - зеленая  вывеска \"Зоомагазин\"), с 11 до 21",
      "longitude": 30.514135,
      "latitude": 59.915093
    },
    {
      "name": "Зоомагазин",
      "address": "ЛО, д.Кудрово, ул Областная, д.1  ( зеленая  вывеска \"Зоомагазин\"), с 10 до 21",
      "longitude": 30.504946,
      "latitude": 59.916094
    },
    {
      "name": "Зоомагазин",
      "address": "г.СПБ, Красносельское шоссе, д. 54, литер А 10 - 21",
      "longitude": 30.152285,
      "latitude": 59.790793
    },
    {
      "name": "Зоомагазин",
      "address": "ЛО, п. Юкки, Ленинградское ш., д.22 (1 этаж в ТЦ)  , с 10 до 20",
      "longitude": 30.799063,
      "latitude": 59.786795
    },
    {
      "name": "Зоомагазин",
      "address": "ЛО, п. Юкки, Ленинградское ш., д.22 (1 этаж в ТЦ)  , с 10 до 20",
      "longitude": 30.799063,
      "latitude": 59.786795
    },
    {
      "name": "Зоомагазин",
      "address": "г.Спб, Автовская ул., д.2, корп.4, пом.2-Н-7 , с 10 до 20",
      "longitude": 30.263694,
      "latitude": 59.865948
    },
    {
      "name": "Зоомагазин",
      "address": "г.Спб, ул. Бабушкина, д.97, с 10 до 22",
      "longitude": 30.44987,
      "latitude": 59.869106
    },
    {
      "name": "Зоомагазин",
      "address": "г.Спб, ул. Будапештская , д. 33, с 11 до 20",
      "longitude": 30.376468,
      "latitude": 59.859181
    },
    {
      "name": "Зоомагазин",
      "address": "г.Спб, ул Адмирала Черокова, д 20Б, с 10 до 20",
      "longitude": 30.138586,
      "latitude": 59.851345
    },
    {
      "name": "Зоомагазин",
      "address": "ЛО, п.Новое Девяткино, ул.Арсенальная, д.6",
      "longitude": 30.472525,
      "latitude": 60.057608
    },
    {
      "name": "Зоомагазин",
      "address": "г.Спб, пр. М.Захарова, д. 34, лит. А, пом № 12 , с 10 до 20",
      "longitude": 30.194048,
      "latitude": 59.853989
    },
    {
      "name": "Зоомагазин",
      "address": "ЛО, Всеволожский р-н, г.п.им.Свердлова, мкр-н 1, Западный проезд, д. 3а, лит А6",
      "longitude": 30.635525,
      "latitude": 59.797851
    },
    {
      "name": "Зоомагазин",
      "address": "№1 г.Спб, пр.Наставников, д 38 (Рынок подвал), с 11 до 20",
      "longitude": 30.481985,
      "latitude": 59.953371
    },
    {
      "name": "Зоомагазин",
      "address": "Спб, г. Ломоносов, ул. Победы, д.21, с 10 до 19",
      "longitude": 29.769701,
      "latitude": 59.903999
    },
    {
      "name": "Зоомагазин",
      "address": "г.Спб, Тихорецкий пр, д.18 с 11 до 20",
      "longitude": 30.367351,
      "latitude": 60.015804
    },
    {
      "name": "Зоомагазин",
      "address": "г.Спб, Выборгское ш., д.33, лит.А ( м-н \"Перекресток\" кассовая зона), с 10 до 21",
      "longitude": 30.303453,
      "latitude": 60.065539
    },
    {
      "name": "Зоомагазин",
      "address": "г.Спб, пр. Мечникова, д.19, лит. А (вход  в маг.\" Верный\"), с 11 до 20",
      "longitude": 30.412958,
      "latitude": 59.98562
    },
    {
      "name": "Зоомагазин",
      "address": "г.Спб, пр. Культуры, д.12, корп.1(м/у \"Улыбка радуги\" и \"Сэконд Хенд\"), с 11 до 20",
      "longitude": 30.367503,
      "latitude": 60.039265
    },
    {
      "name": "Зоомагазин",
      "address": "ЛО. п. Мурино, ул.Новая, д.7, к.1 (маг. \" Естный\"), с 14 до 22",
      "longitude": 30.447184,
      "latitude": 60.040928
    },
    {
      "name": "Зоомагазин",
      "address": "ЛО. п. Мурино, ул.Новая, д.7, к.1 (маг. \" Естный\"), с 14 до 22",
      "longitude": 30.447184,
      "latitude": 60.040928
    },
    {
      "name": "Зоомагазин",
      "address": "Спб, Ланское шоссе , д. 11, корп.1,  с 11-00 до 20-00",
      "longitude": 30.305106,
      "latitude": 59.990206
    },
    {
      "name": "Зоомагазин",
      "address": "г. Спб, пр. Энгельса д.10 , с 11-00 до 21-00",
      "longitude": 30.328148,
      "latitude": 60.000263
    },
    {
      "name": "Зоомагазин",
      "address": "г.Спб, ул. Решетникова д.3 (подвал), будни с 10 до 20, вых. с 11до19",
      "longitude": 30.321725,
      "latitude": 59.878676
    },
    {
      "name": "Зоомагазин",
      "address": "ЛО, пос. Глебычево, ул.Мира (Магазин Каприз), с 10 до 21",
      "longitude": 28.717972,
      "latitude": 60.452385
    },
    {
      "name": "Зоомагазин",
      "address": "г.Спб, пр. Просвещения, д..20/25, с 11 до 20",
      "longitude": 30.316012,
      "latitude": 60.057204
    },
    {
      "name": "Зоомагазин",
      "address": "г.Спб, ул.Парашютная, д.10(2 этаж), с 11 до 20",
      "longitude": 30.285676,
      "latitude": 60.015817
    },
    {
      "name": "Зоомагазин",
      "address": "СПб, п. Шушары, Вилеровский переулок,д. 6, п. 50-Н",
      "longitude": 30.364045,
      "latitude": 59.811609
    },
    {
      "name": "Зоомагазин",
      "address": "г.Спб, ул.Планерная, д.63 к.1",
      "longitude": 30.220449,
      "latitude": 60.023304
    },
    {
      "name": "Зоомагазин",
      "address": "г.Спб, б-р Новаторов, д.77, корп.2, литЕ (павильон №7.4), с 10 до 22",
      "longitude": 30.249968,
      "latitude": 59.842612
    },
    {
      "name": "Зоомагазин",
      "address": "г.Спб, б-р Новаторов, д.77, корп.2, литЕ (павильон №7.4), с 10 до 22",
      "longitude": 30.249968,
      "latitude": 59.842612
    },
    {
      "name": "Зоомагазин",
      "address": "г. СПб, ул. Чапаева д.2, литера Б, пом. 15-Н",
      "longitude": 30.33255,
      "latitude": 59.958084
    },
    {
      "name": "Зоомагазин",
      "address": "г.Спб, ул. Крыленко,  д.21, корп. 1, с 10-00 до 20-30",
      "longitude": 30.476595,
      "latitude": 59.89644
    },
    {
      "name": "Зоомагазин",
      "address": "ЛО, г. Тихвин, мкрн 1, д.16. (Котопес). с 11 до 18",
      "longitude": 33.544755,
      "latitude": 59.647374
    },
    {
      "name": "Зоомагазин",
      "address": "г.СПб, ул. Маяковского д. 30/18, литер А, пом 6-Н",
      "longitude": 30.354909,
      "latitude": 59.939135
    },
    {
      "name": "Зоомагазин",
      "address": "ЛО, г. Всеволожск, ул. Ленинградская, д.22 (ТК \"Пирамида\"), с 9 до 19",
      "longitude": 30.629066,
      "latitude": 60.028298
    },
    {
      "name": "Зоомагазин",
      "address": "СПб, п.Шушары, ул. Первомайская, д. 16,  1й этаж",
      "longitude": 30.374088,
      "latitude": 59.807134
    },
    {
      "name": "Зоомагазин",
      "address": "СПб, п.Шушары, ул. Первомайская, д. 16,  1й этаж",
      "longitude": 30.374088,
      "latitude": 59.807134
    },
    {
      "name": "Зоомагазин",
      "address": "г.Спб, ул.Туристская, 35 корп.4",
      "longitude": 30.213595,
      "latitude": 60.009314
    },
    {
      "name": "Зоомагазин",
      "address": "ЛО, д.Колтуши, ул.Генерала Чоглокова, д.6, пом.7, оф.1",
      "longitude": 30.653491,
      "latitude": 59.931526
    },
    {
      "name": "Зоомагазин",
      "address": "г.Спб, пр.Солидарности , д.11, с 11 до 20",
      "longitude": 30.490761,
      "latitude": 59.920411
    },
    {
      "name": "Зоомагазин",
      "address": "г.Спб, г. Пушкин, с/з Славянка, Ростовская ул., д. 13/15 , с 10 до 21",
      "longitude": 30.471142,
      "latitude": 59.739028
    },
    {
      "name": "Зоомагазин",
      "address": "г.СПб, г.Пушкин, Колпинское ш., д. 77 А",
      "longitude": 30.454245,
      "latitude": 59.725612
    },
    {
      "name": "Зоомагазин",
      "address": "№1 ЛО, г. Кингисепп, ул. Советская, д. 39 А ( 2 этаж), с10 до 19",
      "longitude": 28.611378,
      "latitude": 59.380198
    },
    {
      "name": "Зоомагазин",
      "address": "№1 ЛО, г. Кингисепп, ул. Советская, д. 39 А ( 2 этаж), с10 до 19",
      "longitude": 28.611378,
      "latitude": 59.380198
    },
    {
      "name": "Зоомагазин",
      "address": "№2 ЛО, г. Кингисепп, ул. Воровского, д.26 (ТЦ \"Ямбург\"), с 10 до 19",
      "longitude": 28.616058,
      "latitude": 59.37693
    },
    {
      "name": "Зоомагазин",
      "address": "№4 ЛО, г. Кингисепп, ул. Октябрьская, д. 9",
      "longitude": 28.607749,
      "latitude": 59.376403
    },
    {
      "name": "Зоомагазин",
      "address": "№5  ЛО, г. Ивангород, Кингисеппское ш, д.9 (2-эт), с 10 до 19",
      "longitude": 28.223413,
      "latitude": 59.375986
    },
    {
      "name": "Зоомагазин",
      "address": "г.Спб, п.Стрельна, ул.Львовская, д.29, с 10 до 20",
      "longitude": 30.028353,
      "latitude": 59.849288
    },
    {
      "name": "Зоомагазин",
      "address": "г.Спб, ул.Генерала Симоняка, д.9, с 10 до 20",
      "longitude": 30.203399,
      "latitude": 59.830133
    },
    {
      "name": "Зоомагазин",
      "address": "Спб, Ленинский пр. 77 к 1 с 11 до 20",
      "longitude": 30.190751,
      "latitude": 59.858268
    },
    {
      "name": "Зоомагазин",
      "address": "№ 1 ЛО, г. Сланцы , ул. Ленина, д.5а (ДК \"Горняков\"), с 10 до 12",
      "longitude": 28.085845,
      "latitude": 59.118285
    },
    {
      "name": "Зоомагазин",
      "address": "г.Спб, пр. Композиторов, д.31 , к.2 , с 11 до 20",
      "longitude": 30.317755,
      "latitude": 60.0605
    },
    {
      "name": "Зоомагазин",
      "address": "ЛО, г. Сосновый Бор, ул. Космонавтов, д.6(подвал), с 10 до 19",
      "longitude": 29.093504,
      "latitude": 59.895141
    },
    {
      "name": "Зоомагазин",
      "address": "ЛО, г. Сосновый Бор, ул. Молодёжная, д. 27, с 10 до 19",
      "longitude": 29.089228,
      "latitude": 59.912914
    },
    {
      "name": "Зоомагазин",
      "address": "ЛО, г. Сосновый Бор, ул. Пионерская,  д. 4, с 10 до 19",
      "longitude": 29.099989,
      "latitude": 59.891011
    },
    {
      "name": "Зоомагазин",
      "address": "г.Спб, Большевиков пр, д.71, кор 1 (м-н \"Дикси\" на 2 этаже), с 11 до 20",
      "longitude": 30.47876,
      "latitude": 59.87799
    },
    {
      "name": "Зоомагазин",
      "address": "г.Спб, Индустриальный пр., д.26-24 ( в подвале  ) , с 11 до 20",
      "longitude": 30.4739,
      "latitude": 59.947946
    },
    {
      "name": "Зоомагазин",
      "address": "г.Спб, Индустриальный пр., д.34 (секция 15-подвал  в ТК) , с 11 до 20",
      "longitude": 30.469489,
      "latitude": 59.952006
    },
    {
      "name": "Зоомагазин",
      "address": "Агалатово, Приозерское ш., д.6н, сооружение 8/3",
      "longitude": 30.290886,
      "latitude": 60.221065
    },
    {
      "name": "Зоомагазин",
      "address": "ЛО, д.Агалатово, д.149",
      "longitude": 30.306005,
      "latitude": 60.218222
    },
    {
      "name": "Зоомагазин",
      "address": "ЛО , п. Первомайское, ул. Советская, д.2 (вход с ул. Ленина , магазин \"Пятерочка\")",
      "longitude": 29.739698,
      "latitude": 60.357724
    },
    {
      "name": "Зоомагазин",
      "address": "ЛО, Новое Девяткино, ул. Арсенальная , д. 6",
      "longitude": 30.472525,
      "latitude": 60.057608
    },
    {
      "name": "Зоомагазин",
      "address": "Санкт-Петербург, Дачный пр., д.24, корп. 2, лит.А",
      "longitude": 30.258053,
      "latitude": 59.840944
    },
    {
      "name": "Зоомагазин",
      "address": "г.Спб, пр. Королёва, д. 47, к.1, с 11.30 - 21.00",
      "longitude": 30.252905,
      "latitude": 60.023007
    },
    {
      "name": "Зоомагазин",
      "address": "г. Спб, ул. Седова д.84, пом 4Н лит А",
      "longitude": 30.435461,
      "latitude": 59.875072
    },
    {
      "name": "Зоомагазин",
      "address": "г.Спб, пр. Пятилеток д. 2, пом 27Н (ТЦ \" Торговый двор\" на 1 эт)",
      "longitude": 30.465186,
      "latitude": 59.919581
    },
    {
      "name": "Зоомагазин",
      "address": "г.Спб, ул Дыбенко, д.20, к 1, с 10 до 21",
      "longitude": 30.473469,
      "latitude": 59.904951
    },
    {
      "name": "Зоомагазин",
      "address": "г.Спб, ул. Антонова-Овсеенко д.5, корп.,1, лит. А ,пом. 10-Н,  с 10-00 до 22-00",
      "longitude": 30.459679,
      "latitude": 59.906147
    },
    {
      "name": "Зоомагазин",
      "address": "г.Спб, ул.Народная , д.32 , с 10 до 21",
      "longitude": 30.468142,
      "latitude": 59.881805
    },
    {
      "name": "Зоомагазин",
      "address": "г.Спб, ул.Народная , д.32 , с 10 до 21",
      "longitude": 30.468142,
      "latitude": 59.881805
    },
    {
      "name": "Зоомагазин",
      "address": "г.СПБ, Красносельское шоссе, д. 54, литер А 10 - 21",
      "longitude": 30.152285,
      "latitude": 59.790793
    },
    {
      "name": "Зоомагазин",
      "address": "г.Спб, пр. Ветеранов, д. 141, с 11 до 18",
      "longitude": 30.145035,
      "latitude": 59.835835
    },
    {
      "name": "Зоомагазин",
      "address": "г.Спб, пр. Ветеранов, д. 141, с 11 до 18",
      "longitude": 30.145035,
      "latitude": 59.835835
    },
    {
      "name": "Зоомагазин",
      "address": "г.СПб, пр. Художников д. 22 с 11 до 20",
      "longitude": 30.349474,
      "latitude": 60.044451
    },
    {
      "name": "Зоомагазин",
      "address": "ЛО, г.Выборг, Ленинградское ш., д.57 (ТЦ \"Находка\",  2-ой этаж), с 10 до 20",
      "longitude": 28.782579,
      "latitude": 60.699718
    },
    {
      "name": "Зоомагазин",
      "address": "ЛО, г.Выборг, Ленинградское ш., д.57 (ТЦ \"Находка\",  2-ой этаж), с 10 до 20",
      "longitude": 28.782579,
      "latitude": 60.699718
    },
    {
      "name": "Зоомагазин",
      "address": "ЛО, г.Всеволожск, ул.Плоткина, д.9/73",
      "longitude": 30.630305,
      "latitude": 60.023254
    },
    {
      "name": "Зоомагазин",
      "address": "г.Спб, ул. Пестеля д.13-15, лит.А, пом.18-Н с 11 до 20",
      "longitude": 30.343788,
      "latitude": 59.94248
    },
    {
      "name": "Зоомагазин",
      "address": "г.Спб, г. Кронштадт, ул. Гидростростроителей, д.8 (ТК \"Котлин\", с 11 до 19",
      "longitude": 29.718372,
      "latitude": 60.010443
    },
    {
      "name": "Зоомагазин",
      "address": "г.Спб, ул.Будапештская , д.17/1, с 10 до 21",
      "longitude": 30.371815,
      "latitude": 59.865438
    },
    {
      "name": "Зоомагазин",
      "address": "г.Спб, г. Павловск, Медвежий переулок, д.2/5 кор. 2 пом. 1-Н(цоколь), с 10 до 20",
      "longitude": 30.434904,
      "latitude": 59.685885
    },
    {
      "name": "Зоомагазин",
      "address": "г.Спб, ул.Будапештская , д.17/1, с 10 до 20",
      "longitude": 30.371815,
      "latitude": 59.865438
    },
    {
      "name": "Зоомагазин",
      "address": "г.Спб, ул.Бухарестская, д. 33, с 10 до 21",
      "longitude": 30.385712,
      "latitude": 59.864674
    },
    {
      "name": "Зоомагазин",
      "address": "194362, СПб, п.Парголово, 4-й Верхний пер. д.19, лит. Б",
      "longitude": 30.343159,
      "latitude": 60.073122
    },
    {
      "name": "Зоомагазин",
      "address": "г.Спб , ул.Туристская, д. 23 , корп.5, с 11 до 20",
      "longitude": 30.214026,
      "latitude": 60.004442
    },
    {
      "name": "Зоомагазин",
      "address": "г.Спб, пр. Художников, д.24",
      "longitude": 30.351414,
      "latitude": 60.04658
    },
    {
      "name": "Зоомагазин",
      "address": "г.Спб, Гражданский пр., д.105",
      "longitude": 30.412545,
      "latitude": 60.026626
    },
    {
      "name": "Зоомагазин",
      "address": "г.Спб, Пискаревский пр., д.39",
      "longitude": 30.420836,
      "latitude": 59.97848
    },
    {
      "name": "Зоомагазин",
      "address": "г.Спб, пр. Науки, д. 24",
      "longitude": 30.412733,
      "latitude": 60.00966
    },
    {
      "name": "Зоомагазин",
      "address": "г.Спб, пр.Культуры , д.11",
      "longitude": 30.372148,
      "latitude": 60.040447
    },
    {
      "name": "Зоомагазин",
      "address": "г.Спб, пр.Светлановский, д.115, корп.1",
      "longitude": 30.40313,
      "latitude": 60.043777
    },
    {
      "name": "Зоомагазин",
      "address": "г.Спб, Сиреневый б-р, д.6",
      "longitude": 30.351648,
      "latitude": 60.054424
    },
    {
      "name": "Зоомагазин",
      "address": "г.Спб, ул. Софьи Ковалевской, д.1",
      "longitude": 30.409859,
      "latitude": 60.011023
    },
    {
      "name": "Зоомагазин",
      "address": "ЛО, г. Сосновый Бор, ул. Солнечная, д.12 (ТЦ), с 10 до 19",
      "longitude": 29.085877,
      "latitude": 59.901138
    },
    {
      "name": "Зоомагазин",
      "address": "г. Спб, 10 линия В.О, д.41, лит.А (вывеска Зоомагазин Жираф (голубая дверь), с 10 до 20",
      "longitude": 30.271195,
      "latitude": 59.944012
    },
    {
      "name": "Зоомагазин",
      "address": "197350 г.СПб, Комендантский пр., д. 33 корп.3",
      "longitude": 30.24412,
      "latitude": 60.022004
    },
    {
      "name": "Зоомагазин",
      "address": "СПб, г. Колпино, ул. Загородная, д. 43, корп. 4, строение 1",
      "longitude": 30.599996,
      "latitude": 59.774131
    },
    {
      "name": "Зоомагазин",
      "address": "г. Спб, г. Колпино, б-р Трудящихся, д.18, корп. 4, литер А, с 9 до 21",
      "longitude": 30.581311,
      "latitude": 59.735691
    },
    {
      "name": "Зоомагазин",
      "address": "г.Спб, г. Колпино, ул.Ижорского Батальона, д. 7(Зоомаркет ДИНОЗОО), с 9 до 21",
      "longitude": 30.614495,
      "latitude": 59.735813
    },
    {
      "name": "Зоомагазин",
      "address": "ЛО, г. Никольское, Советский пр., д.144, к 2, с 11 до 19",
      "longitude": 30.785534,
      "latitude": 59.695607
    },
    {
      "name": "Зоомагазин",
      "address": "г.Спб, г.Старый Петергоф, Бульвар Красных Курсантов, д.63 (\"Ярмарка\"), с 10 до 19",
      "longitude": 29.863944,
      "latitude": 59.878676
    },
    {
      "name": "Зоомагазин",
      "address": "г.Спб, г.Колпино, ул Веры Слуцкой, д.38, с 10 до 20",
      "longitude": 30.582201,
      "latitude": 59.742674
    },
    {
      "name": "Зоомагазин",
      "address": "ЛО, г.Отрадное, ул.Клубная, д.4, с 10 до 20",
      "longitude": 30.794607,
      "latitude": 59.771082
    },
    {
      "name": "Зоомагазин",
      "address": "г.Спб, г. Зеленогорск, пр. Ленина, д. 25 (подъезд с обратной стороны), с 9 до 19",
      "longitude": 29.706819,
      "latitude": 60.200796
    },
    {
      "name": "Зоомагазин",
      "address": "г.Спб, г. Ломоносов, ул.Рубакина, д.16, с 9 до 17",
      "longitude": 29.766108,
      "latitude": 59.916428
    },
    {
      "name": "Зоомагазин",
      "address": "г.Спб, пр. Ветеранов, д. 36/2 (ТЦ \"Манхэттен\", 2 этаж)   с 11 до 21",
      "longitude": 30.247551,
      "latitude": 59.842956
    },
    {
      "name": "Зоомагазин",
      "address": "г.Спб, пр.Ветеранов , д.147 (\"Рынок 555\") , с 11 до 20",
      "longitude": 30.135954,
      "latitude": 59.83607
    },
    {
      "name": "Зоомагазин",
      "address": "г.Спб, Ланское шоссе д 2/57 лит.А пом 4Н",
      "longitude": 30.301783,
      "latitude": 59.990161
    },
    {
      "name": "Зоомагазин",
      "address": "ЛО, г. Бокситогорск, ул. Комсомольская, д.9 , с 10 до 19",
      "longitude": 33.846032,
      "latitude": 59.474856
    },
    {
      "name": "Зоомагазин",
      "address": "г. Пушкин, Октябрьский б-р, д. 7/29",
      "longitude": 30.406266,
      "latitude": 59.724868
    },
    {
      "name": "Зоомагазин",
      "address": "г. СПб, г.Пушкин, Красносельское шоссе, д.55",
      "longitude": 30.3625,
      "latitude": 59.70407
    },
    {
      "name": "Зоомагазин",
      "address": "г.СПб, ул. Кржижановского д.8А с 11 до 20",
      "longitude": 30.46524,
      "latitude": 59.931603
    },
    {
      "name": "Зоомагазин",
      "address": "г.СПб, пр. Славы, д.15",
      "longitude": 30.374501,
      "latitude": 59.854788
    },
    {
      "name": "Зоомагазин",
      "address": "г.Спб, пр.Наставников, д.47",
      "longitude": 30.480772,
      "latitude": 59.957377
    },
    {
      "name": "Зоомагазин",
      "address": "г.Спб, ул Верности, д.10, корп.3",
      "longitude": 30.407299,
      "latitude": 60.008082
    },
    {
      "name": "Зоомагазин",
      "address": "ЛО, г. Тихвин, мкр-н 1А , д.1, с 10 до 19",
      "longitude": 33.556765,
      "latitude": 59.645628
    },
    {
      "name": "Зоомагазин",
      "address": "ЛО, д. Федоровское, ул. Шоссейная, д.3, с 11 до 19( обед с 14 до 15)",
      "longitude": 30.529964,
      "latitude": 59.66319
    },
    {
      "name": "Зоомагазин",
      "address": "г. Спб, г.Кронштадт, пр.Ленина, д.16 (1эт в ТК \"Гостиный двор\"), с 10 до 19",
      "longitude": 29.766674,
      "latitude": 59.996861
    },
    {
      "name": "Зоомагазин",
      "address": "г.Спб, ул.Русановская, д.19 к. 1 лит А пом. 26-Н , с 10 до 20",
      "longitude": 30.512366,
      "latitude": 59.864887
    },
    {
      "name": "ПЭТМАГ",
      "address": "г.Спб, Каменноостровский пр., д. 56(2-й этаж), с 11 до 19",
      "longitude": 30.305726,
      "latitude": 59.971902
    },
    {
      "name": "ПЭТСИ",
      "address": "г.Спб, пр. Наставников, д.29, к. 3, кв.306 (5 этаж) , с 10 до 21",
      "longitude": 30.492082,
      "latitude": 59.949334
    },
    {
      "name": "ПЭТСИ",
      "address": "г.Спб, ул. Радищева, д.22, с 11 до 21",
      "longitude": 30.363209,
      "latitude": 59.939009
    },
    {
      "name": "Зоомагазин",
      "address": "г.Спб, Гражданский пр., д.118 ( под магазином \" Дикси\"), с 10 до 21",
      "longitude": 30.420154,
      "latitude": 60.036722
    },
    {
      "name": "Зоомагазин",
      "address": "г.Спб, Гражданский пр., д.118 ( под магазином \" Дикси\"), с 10 до 21",
      "longitude": 30.420154,
      "latitude": 60.036722
    },
    {
      "name": "Зоомагазин",
      "address": "г.Спб, Индустриальный пр., д. 30/23 (ТД Садко, место 13), с 11 до 20-30",
      "longitude": 30.471447,
      "latitude": 59.950443
    },
    {
      "name": "Зоомагазин",
      "address": "г.Спб, Луначарского пр., д.62 к. 1, с 10 до 21",
      "longitude": 30.343204,
      "latitude": 60.041148
    },
    {
      "name": "Зоомагазин",
      "address": "г.Спб, Луначарского пр., д.62 к. 1, с 10 до 21",
      "longitude": 30.343204,
      "latitude": 60.041148
    },
    {
      "name": "Зоомагазин",
      "address": "г.Спб, пр. Большевиков д.3, корп. 1,  пом. 45-Н , с 10 до 22",
      "longitude": 30.471393,
      "latitude": 59.917637
    },
    {
      "name": "Зоомагазин",
      "address": "г.Спб, пр. Индустриальный, д. 27/26, лит А, с 11 до 19",
      "longitude": 30.475463,
      "latitude": 59.948834
    },
    {
      "name": "Зоомагазин",
      "address": "г.Спб, пр. Энгельса д.143 к.1 пом. 18-Н, с 10 до 14",
      "longitude": 30.337535,
      "latitude": 60.054666
    },
    {
      "name": "Зоомагазин",
      "address": "г.Спб, пр.Заневский  д. 9/8 , с 10 до 21",
      "longitude": 30.408278,
      "latitude": 59.927991
    },
    {
      "name": "Зоомагазин",
      "address": "г.Спб, пр.Просвещения , д.36 , к 3 (ТЦ Стелла), с 10 до 21",
      "longitude": 30.336871,
      "latitude": 60.052721
    },
    {
      "name": "Зоомагазин",
      "address": "г.Спб, ул. Брянцева, д.20, с 10 до 21.30",
      "longitude": 30.405259,
      "latitude": 60.039755
    },
    {
      "name": "Зоомагазин",
      "address": "г.Спб, ул. Брянцева, д.20, с 10 до 21.30",
      "longitude": 30.405259,
      "latitude": 60.039755
    },
    {
      "name": "Зоомагазин",
      "address": "г.Спб, ул. Енотаевская, д. 3 , с 12 до 18",
      "longitude": 30.320997,
      "latitude": 60.016941
    },
    {
      "name": "Зоомагазин",
      "address": "г.Спб, ул. Хасанская д.15 ( рынок) , с 9 до 20",
      "longitude": 30.489441,
      "latitude": 59.93534
    },
    {
      "name": "Зоомагазин",
      "address": "г.Спб, ул. Хошимина, д.11, кор.1( зоотовары \" Риса\"), с 10 до 21",
      "longitude": 30.327052,
      "latitude": 60.052335
    },
    {
      "name": "Зоомагазин",
      "address": "г.Спб, ул. Хошимина, д.11, кор.1( зоотовары \" Риса\"), с 10 до 21",
      "longitude": 30.327052,
      "latitude": 60.052335
    },
    {
      "name": "Зоомагазин",
      "address": "г.Спб, ул.Турку , д. 35, лит А, с 10 до 21",
      "longitude": 30.412437,
      "latitude": 59.866829
    },
    {
      "name": "Зоомагазин",
      "address": "г.Спб, г. Колпино, ул. Ижорского Батальона, д. 13( м-н \"Пятёрочка\"), с 10 до 20",
      "longitude": 30.617576,
      "latitude": 59.736298
    },
    {
      "name": "Зоомагазин",
      "address": "ЛО, д. Кудрово, Европейский пр., д. 3, с 11 до 20",
      "longitude": 30.512024,
      "latitude": 59.897695
    },
    {
      "name": "Зоомагазин",
      "address": "г.Спб, Московский пр., д. 216(подвал), с 11 до 21",
      "longitude": 30.322345,
      "latitude": 59.848552
    },
    {
      "name": "Зоомагазин",
      "address": "г.СПб, ул. Будапештская, д.48 с 11 до 20",
      "longitude": 30.380708,
      "latitude": 59.855846
    },
    {
      "name": "Зоомагазин",
      "address": "Лен.обл, п.Мурино, Воронцовский бульвар дом 10  пом 14-Н",
      "longitude": 30.421968,
      "latitude": 60.056714
    },
    {
      "name": "Зоомагазин",
      "address": "г. Спб, ул. Купчинская, д.1/5, с 10 до 21",
      "longitude": 30.379298,
      "latitude": 59.845397
    },
    {
      "name": "Зоомагазин",
      "address": "г.Спб, ул. Софийская д. 28 , с 10 до 21",
      "longitude": 30.402618,
      "latitude": 59.875384
    },
    {
      "name": "Зоомагазин",
      "address": "Спб, пр. Просвещения д.48 с 10 до 20",
      "longitude": 30.353831,
      "latitude": 60.049761
    },
    {
      "name": "Зоомагазин",
      "address": "г.Спб, ул. Будапештская, д. 94( ун-г Пловдив) , с 11 до 21",
      "longitude": 30.398351,
      "latitude": 59.838218
    },
    {
      "name": "Зоомагазин",
      "address": "ЛО, г. Всеволожск, мкр-н Южный, ул. Центральная д.8, с 11 до 21",
      "longitude": 30.644472,
      "latitude": 59.99278
    },
    {
      "name": "Зоомагазин",
      "address": "г.Санкт Петербург Земский переулок, д.8",
      "longitude": 30.290266,
      "latitude": 60.024976
    },
    {
      "name": "Зоомагазин",
      "address": "г.Спб, Кондратьевский пр., д.51, корп.1,кв.100,  с 10-00 до 21-00",
      "longitude": 30.389575,
      "latitude": 59.973325
    },
    {
      "name": "Зоомагазин",
      "address": "г.Спб, Кондратьевский пр., д.51, корп.1,кв.100,  с 10-00 до 21-00",
      "longitude": 30.389575,
      "latitude": 59.973325
    },
    {
      "name": "Зоомагазин",
      "address": "г.Спб, ул. Большая Пороховская д.21, с 10 до 20",
      "longitude": 30.416938,
      "latitude": 59.953205
    },
    {
      "name": "Зоомагазин",
      "address": "№1 г.Спб, Полюстровский рынок (большой павильон 48-50), с 10 до 18",
      "longitude": 30.388632,
      "latitude": 59.969673
    },
    {
      "name": "Зоомагазин",
      "address": "№1 г.Спб, Полюстровский рынок (большой павильон 48-50), с 10 до 18",
      "longitude": 30.388632,
      "latitude": 59.969673
    },
    {
      "name": "Зоомагазин",
      "address": "№2 г.Спб, ул. Долгоозёрная, д.12, к.1 (\"Идея\") , с 10 до 21",
      "longitude": 30.244784,
      "latitude": 60.017216
    },
    {
      "name": "Зоомагазин",
      "address": "№5 г.Спб, ул.Фрунзе , д.21 , с 10 до 21",
      "longitude": 30.327906,
      "latitude": 59.861575
    },
    {
      "name": "Зоомагазин",
      "address": "№7 г.Спб, ул. Литовская, д.10, с 10 до 14",
      "longitude": 30.357649,
      "latitude": 59.979115
    },
    {
      "name": "Зоомагазин",
      "address": "№8г. Спб, пр. Авиаконструкторов, д.14, лит. Б, с 10 до 18",
      "longitude": 30.236933,
      "latitude": 60.016694
    },
    {
      "name": "Зоомагазин",
      "address": "№9г. Спб, пр. Стачек д.2/2, лит. А, пом. 4Н, с 10 до 18",
      "longitude": 30.275552,
      "latitude": 59.899261
    },
    {
      "name": "Зоомагазин",
      "address": "№9г. Спб, пр. Стачек д.2/2, лит. А, пом. 4Н, с 10 до 18",
      "longitude": 30.275552,
      "latitude": 59.899261
    },
    {
      "name": "Зоомагазин",
      "address": "г.Спб, ул.Партизана Германа д.8, корп. 3, лит.А  с 10 до 19",
      "longitude": 30.176674,
      "latitude": 59.838331
    },
    {
      "name": "Зоомагазин",
      "address": "г.Спб, п.Горелово, Красносельское ш., д.44, с 10 до 15",
      "longitude": 30.146293,
      "latitude": 59.788117
    },
    {
      "name": "Зоомагазин",
      "address": "г. Санкт-Петербург, проспект Большевиков, д. 32, корп.1, лит А",
      "longitude": 30.493357,
      "latitude": 59.895452
    },
    {
      "name": "Зоомагазин",
      "address": "г. Санкт-Петербург, Шлиссельбургский проспект, д. 6, лит А",
      "longitude": 30.490105,
      "latitude": 59.842106
    },
    {
      "name": "Зоомагазин",
      "address": "г. Спб, пр. Большевиков, д. 37, корп. 1, с 10 до 20",
      "longitude": 30.490249,
      "latitude": 59.894121
    },
    {
      "name": "Зоомагазин",
      "address": "г.Спб, п. Металлострой, ул.Центральная, д.16, с 10 до 20",
      "longitude": 30.575221,
      "latitude": 59.809912
    },
    {
      "name": "Зоомагазин",
      "address": "г.СПБ, ул, Парашютная, д.61, корп.1",
      "longitude": 30.250426,
      "latitude": 60.035297
    },
    {
      "name": "Зоомагазин",
      "address": "ЛО, г. Гатчина, ул. Новоселов - 7, пом.№2",
      "longitude": 30.124473,
      "latitude": 59.568492
    },
    {
      "name": "Зоомагазин",
      "address": "г.Спб, пр.Косыгина,  д.27/1 (2 этаж здания молодежн.моды), с 11 до 20",
      "longitude": 30.494211,
      "latitude": 59.944706
    },
    {
      "name": "Зоомагазин",
      "address": "Санкт-Петербург, Ленинский проспект, д.67, корп.1, лит.А, пом.5Н (Гастроном)",
      "longitude": 30.182684,
      "latitude": 59.86017
    },
    {
      "name": "Зоомагазин",
      "address": "г.Спб, Ленинский пр., д.88, с 11 до 21",
      "longitude": 30.204477,
      "latitude": 59.856474
    },
    {
      "name": "Зоомагазин",
      "address": "г.Спб, ул. Бухарестская, д.118, с 11 до 21",
      "longitude": 30.406328,
      "latitude": 59.846658
    },
    {
      "name": "Зоомагазин",
      "address": "г.Спб, ул. Малая Балканская, д. 26 с 10 до 21",
      "longitude": 30.385982,
      "latitude": 59.829283
    },
    {
      "name": "Зоомагазин",
      "address": "г.Спб, пр.Стачек, д.15, с 11 до 20",
      "longitude": 30.274833,
      "latitude": 59.894599
    },
    {
      "name": "Зоомагазин",
      "address": "г.Спб, ул. Пражская,  д. 22, корп. 1, с 11 до 20",
      "longitude": 30.390222,
      "latitude": 59.873794
    },
    {
      "name": "Зоомагазин",
      "address": "г.Спб, Дунайский пр., д. 7, корп. 3, с 11 до 20",
      "longitude": 30.333098,
      "latitude": 59.828292
    },
    {
      "name": "Зоомагазин",
      "address": "г.Спб, ул. Алтайская д.23 с 11 до 20",
      "longitude": 30.329235,
      "latitude": 59.849157
    },
    {
      "name": "Зоомагазин",
      "address": "г.Спб, г. Пушкин, ул. Кедринская, д.12 лит. А",
      "longitude": 30.411718,
      "latitude": 59.69924
    },
    {
      "name": "Зоомагазин",
      "address": "г.Спб, п.Шушары, ул. Окуловская, д. 8 (подвал в магазине \"Продукты\") с 12 до 21",
      "longitude": 30.371249,
      "latitude": 59.808111
    },
    {
      "name": "Зоомагазин",
      "address": "ЛО, г. Кириши, пр. Героев, д.16 , с 10 до 19",
      "longitude": 32.024985,
      "latitude": 59.44464
    },
    {
      "name": "Зоомагазин",
      "address": "г.Спб, ул.Народная, д.3 (ТЦ \"Штрих-Код\", подвал) , с 11 до 20",
      "longitude": 30.460686,
      "latitude": 59.878527
    },
    {
      "name": "Зоомагазин",
      "address": "ЛО, пос.Лесколово (рынок 999 мелочей,  1эт)",
      "longitude": 30.456293,
      "latitude": 60.272212
    },
    {
      "name": "Зоомагазин",
      "address": "г.Спб,Богатырский  пр-т д.60 к.1",
      "longitude": 30.204827,
      "latitude": 60.007101
    },
    {
      "name": "Зоомагазин",
      "address": "№ 2 ЛО, г. Гатчина, ул. Соборная, д.29 (продуктовый рынок , пав.№ 2) , с 8 до 18",
      "longitude": 30.132208,
      "latitude": 59.563843
    },
    {
      "name": "Зоомагазин",
      "address": "№ 4 ЛО, г.Гатчина, 3-й Тосненский переулок, д.3, с 9 до 18",
      "longitude": 30.131722,
      "latitude": 59.545321
    },
    {
      "name": "Зоомагазин",
      "address": "СПб, ул. Матроса Железняка д.57, лит.А",
      "longitude": 30.316245,
      "latitude": 60.000285
    },
    {
      "name": "Зоомагазин",
      "address": "г.Спб, Пулковское ш., д.36, корп. 5, с 11 до 20",
      "longitude": 30.326217,
      "latitude": 59.821829
    },
    {
      "name": "Зоомагазин",
      "address": "ЛО, г. Тосно, ул. Советская, д.6 , с 9 до 16",
      "longitude": 30.880684,
      "latitude": 59.541767
    },
    {
      "name": "Зоомагазин",
      "address": "г.Спб, ул Орджоникидзе, д 59, к. 2 (въезд со двора), с 12 до 20",
      "longitude": 30.362527,
      "latitude": 59.842793
    },
    {
      "name": "Зоомагазин",
      "address": "г. Санкт-Петербург, пр. Науки д.21, к.1, лит. А с 10-00 до 21-00",
      "longitude": 30.40048,
      "latitude": 60.010987
    },
    {
      "name": "Зоомагазин",
      "address": "г.Спб, ул.Наличная, д.45",
      "longitude": 30.231489,
      "latitude": 59.94431
    },
    {
      "name": "Зоомагазин",
      "address": "196240, СПб, Пулковское ш. д.3, литер А, пом. 23Н",
      "longitude": 30.31753,
      "latitude": 59.840655
    },
    {
      "name": "Зоомагазин",
      "address": "г.С-Пб, ул. Маршала Захарова, д.21",
      "longitude": 30.193464,
      "latitude": 59.85304
    },
    {
      "name": "Зоомагазин",
      "address": "г.СПб, ул. Маршала Захарова, д.23",
      "longitude": 30.194649,
      "latitude": 59.852908
    },
    {
      "name": "Зоомагазин",
      "address": "г.СПб, ул.Солдата Корзуна, д.34",
      "longitude": 30.219488,
      "latitude": 59.832534
    },
    {
      "name": "Зоомагазин",
      "address": "г.Спб, пр.Испытателей д.13",
      "longitude": 30.290095,
      "latitude": 60.005441
    },
    {
      "name": "Зоомагазин",
      "address": "ЛО, Тосненский р-н, п. Ульяновка, Советский пр-кт, д. 8А",
      "longitude": 30.758989,
      "latitude": 59.637728
    },
    {
      "name": "Зоомагазин",
      "address": "г.Спб, г. Колпино, ул. Павловская , д.82(цоколь), с 10 до 14",
      "longitude": 30.567666,
      "latitude": 59.747951
    },
    {
      "name": "Зоомагазин",
      "address": "СПб, г. Колпино, ул. Павловская, д. 82",
      "longitude": 30.567666,
      "latitude": 59.747951
    },
    {
      "name": "Зоомагазин",
      "address": "СПб, г. Колпино, ул. Павловская, д. 82",
      "longitude": 30.567666,
      "latitude": 59.747951
    },
    {
      "name": "Зоомагазин",
      "address": "г.СПб, пр. Авиаконструкторов д.38 к. 1",
      "longitude": 30.221949,
      "latitude": 60.027256
    },
    {
      "name": "Зоомагазин",
      "address": "г.Спб, ул. Глухарская, д.9 (цоколь), с 11 до 21",
      "longitude": 30.218419,
      "latitude": 60.030043
    },
    {
      "name": "Зоомагазин",
      "address": "г.Спб, ул. Глухарская, д.9 (цоколь), с 11 до 21",
      "longitude": 30.218419,
      "latitude": 60.030043
    },
    {
      "name": "Зоомагазин",
      "address": "№1 ЛО, г.Гатчина , ул.Соборная , д.20,  с 9 до 19",
      "longitude": 30.127959,
      "latitude": 59.565488
    },
    {
      "name": "Зоомагазин",
      "address": "г.Спб, ул.Решетникова , д.3(подвал), будни с 10 до 20, вых с 11 до 19",
      "longitude": 30.325956,
      "latitude": 59.877592
    },
    {
      "name": "Зоомагазин",
      "address": "г. Спб, ул. Заречная, д.35, корп.1",
      "longitude": 30.335155,
      "latitude": 60.081614
    },
    {
      "name": "Зоомагазин",
      "address": "г.Спб, Лыжный пер., д. 2",
      "longitude": 30.201333,
      "latitude": 59.99638
    },
    {
      "name": "Зоомагазин",
      "address": "г.Спб, Индустриальный пр., д.27(Вывеска \"Фотозоо\") , с 11 до 20",
      "longitude": 30.475463,
      "latitude": 59.948834
    },
    {
      "name": "Зоомагазин",
      "address": "г.Спб, пр. Захарова , д.22/1, пн-пт с 10 до 20, сб - с 11 до 18",
      "longitude": 30.294479,
      "latitude": 60.045349
    },
    {
      "name": "Зоомагазин",
      "address": "ЛО, п.Никольское, ул. Школьная, д. 2А (рынок, пав.7), с 10 до 19",
      "longitude": 30.785202,
      "latitude": 59.701995
    },
    {
      "name": "Зоомагазин",
      "address": "г. Спб, ул. Купчинская д. 32, корп.1, литер А с 10 до 21",
      "longitude": 30.386853,
      "latitude": 59.839375
    },
    {
      "name": "Зоомагазин",
      "address": "ЛО, г.Кириши, ул.Советская, д.15, с 10 до 19",
      "longitude": 32.017286,
      "latitude": 59.450834
    },
    {
      "name": "Зоомагазин",
      "address": "ЛО, г.Сертолово, мкр.Сертолово-1, ул. Ларина, д.15( новый дом напротив \"Пятерочки\"), с 11 до 18",
      "longitude": 30.214179,
      "latitude": 60.145363
    },
    {
      "name": "Зоомагазин",
      "address": "ЛО, п. Колтуши, д.Старая, ул. Иоанна Кронштадского, д.5, с 12 до 18",
      "longitude": 30.632129,
      "latitude": 59.929578
    },
    {
      "name": "Зоомагазин",
      "address": "С-пб, ул Ленская, д. 19 корп 1",
      "longitude": 30.496304,
      "latitude": 59.939636
    },
    {
      "name": "Зоомагазин",
      "address": "С-пб, ул Ленская, д. 19 корп 1",
      "longitude": 30.496304,
      "latitude": 59.939636
    },
    {
      "name": "Зоомагазин",
      "address": "г.Спб, пр.Авиаконструкторов, д.8/1",
      "longitude": 30.243545,
      "latitude": 60.011855
    },
    {
      "name": "Зоомагазин",
      "address": "г.Спб, пр.Королёва, д.7",
      "longitude": 30.290715,
      "latitude": 60.010731
    },
    {
      "name": "Зоомагазин",
      "address": "г.Спб, ул. Малая Балканская, д. 26 с 10 до 21",
      "longitude": 30.385982,
      "latitude": 59.829283
    },
    {
      "name": "Зоомагазин",
      "address": "г.СПб, проспект Юнтоловский, д. 49, корпус 1 лит. А",
      "longitude": 30.142017,
      "latitude": 60.032767
    },
    {
      "name": "Зоомагазин",
      "address": "г.Спб, пр.Товарищеский, д. 20/ 27 (2 этаж), с 10 до 20",
      "longitude": 30.486548,
      "latitude": 59.915025
    },
    {
      "name": "Зоомагазин",
      "address": "ЛО, г. Всеволожск, ул. Сергеевская, д.112 , с  10 до 20",
      "longitude": 30.654084,
      "latitude": 60.021317
    },
    {
      "name": "Зоомагазин",
      "address": "ЛО, Колтуши, д.Старая, ул.Верхняя, д.5 (цоколь)",
      "longitude": 30.623299,
      "latitude": 59.930205
    },
    {
      "name": "Зоомагазин",
      "address": "г.Спб, г.Пушкин, Привокзальная площадь, д.1, к.3 лит В(2 этаж), с 11 до 20",
      "longitude": 30.428607,
      "latitude": 59.724278
    },
    {
      "name": "Зоомагазин",
      "address": "г.Спб, ул. Стойкости , д.20 с 10 до 20",
      "longitude": 30.207163,
      "latitude": 59.826298
    },
    {
      "name": "Зоомагазин",
      "address": "г.Спб , ул. Некрасова , д.56(подвал), с 10 до 14",
      "longitude": 30.367036,
      "latitude": 59.938577
    },
    {
      "name": "Зоомагазин",
      "address": "г. Санкт-Петербург, ул. Костюшко  д. 68, литер А с 11 до 20",
      "longitude": 30.309346,
      "latitude": 59.844958
    },
    {
      "name": "Зоомагазин",
      "address": "г.Спб, ул. Большая Монетная, д.10 (вход с Каменноостровского, д. 24, м-н \"Дикси\", подв) , с 11 до 22",
      "longitude": 30.314835,
      "latitude": 59.961206
    },
    {
      "name": "Зоомагазин",
      "address": "г.Спб, ул. Бутлерова, д.11, корп.3, лит.А (Минимаркет, магазин \"Цветы\"), с 11 до 21",
      "longitude": 30.401675,
      "latitude": 60.005077
    },
    {
      "name": "Зоомагазин",
      "address": "ЛО, пгт Токсово, ж/д станция Токсово (павильон \"Нева\"), с 9 до 20",
      "longitude": 30.531814,
      "latitude": 60.16024
    },
    {
      "name": "Зоомагазин",
      "address": "№1 ЛО, г. Пикалево, ул. Спортивная, д.4( 2-й этаж), с 10 до 19",
      "longitude": 34.176162,
      "latitude": 59.511442
    },
    {
      "name": "Зоомагазин",
      "address": "г.СПб, Петергофское ш. д.3",
      "longitude": 30.205807,
      "latitude": 59.847033
    },
    {
      "name": "Зоомагазин",
      "address": "г.Спб, пр. Маршала Захарова , д. 42 с 10 до 21",
      "longitude": 30.19871,
      "latitude": 59.852845
    },
    {
      "name": "Зоомагазин",
      "address": "ЛО, г. Всеволожск, Октябрьский пр., д.85 (ТЦ \"Юбилейный\"), с 10 до 19",
      "longitude": 30.646628,
      "latitude": 60.019837
    },
    {
      "name": "Зоомагазин",
      "address": "ЛО, г.Выборг, ул.Приморская, д.5",
      "longitude": 28.765331,
      "latitude": 60.695138
    },
    {
      "name": "Зоомагазин",
      "address": "г.Спб, ул. Львовская , д.12",
      "longitude": 30.418339,
      "latitude": 59.971659
    },
    {
      "name": "Зоомагазин",
      "address": "г.Спб, г. Ломоносов, ул.Рубакина, д. 16 ( рынок, место № 17), с  9 до 18",
      "longitude": 29.766108,
      "latitude": 59.916428
    },
    {
      "name": "Зоомагазин",
      "address": "г.Спб, г. Петергоф,  Торговая площадь, 8 (рынок 2 павильон), с 10 до 18",
      "longitude": 29.914977,
      "latitude": 59.877728
    },
    {
      "name": "Зоомагазин",
      "address": "Самарская область, г. Сызрань, ТЦ Автобус, Интернациональная, д.  151 А",
      "longitude": 48.437205,
      "latitude": 53.159627
    },
    {
      "name": "Зоомагазин",
      "address": "г. Выборг, ул. Госпитальная 1",
      "longitude": 28.714459,
      "latitude": 60.71991
    },
    {
      "name": "Зоомагазин",
      "address": "г. Выкса, ул. Красные Зори д. 7А",
      "longitude": 42.167171,
      "latitude": 55.320437
    },
    {
      "name": "Зоомагазин",
      "address": "Г. СПб ,ул. Наличная, 40 с 10 до 22",
      "longitude": 30.231184,
      "latitude": 59.950555
    },
    {
      "name": "Зоомагазин",
      "address": "г. СПб, ул. Бабушкина,  д.8/2, (ТЦ \"Елизаровский\"), с 10 до 21",
      "longitude": 30.422848,
      "latitude": 59.897032
    },
    {
      "name": "Зоомагазин",
      "address": "г. СПб, ул. Якорная, д. 5А (ТРЦ \"Охта Молл\"),  с 9.15 до 10",
      "longitude": 30.41806,
      "latitude": 59.940132
    },
    {
      "name": "Зоомагазин",
      "address": "Санкт-Петербург, ул. Тепловозная, д. 31, ТРЦ \"Порт Находка\" прикасса \"Перекресток\"",
      "longitude": 30.5027,
      "latitude": 59.834732
    },
    {
      "name": "Ле`Муррр",
      "address": "Проспект Маршала Жукова, 31, корп. 1",
      "longitude": 30.22866,
      "latitude": 59.858634
    },
    {
      "name": "Ле`Муррр",
      "address": "Проспект Стачек, 86",
      "longitude": 30.260406,
      "latitude": 59.869643
    },
    {
      "name": "Ле`Муррр",
      "address": "Улица Партизана Германа, 2",
      "longitude": 30.179657,
      "latitude": 59.843525
    },
    {
      "name": "Ле`Муррр",
      "address": "Проспект Науки, 17, корп. 1",
      "longitude": 30.388605,
      "latitude": 60.01427
    },
    {
      "name": "Ле`Муррр",
      "address": "Лахтинский проспект, 85, лит. Б",
      "longitude": 30.147739,
      "latitude": 59.994175
    },
    {
      "name": "Ле`Муррр",
      "address": "Бухарестская улица, 32, лит. А",
      "longitude": 30.370504,
      "latitude": 59.882699
    },
    {
      "name": "Ле`Муррр",
      "address": "Улица Фучика, 2",
      "longitude": 30.35852,
      "latitude": 59.877416
    },
    {
      "name": "Ле`Муррр",
      "address": "Гражданский проспект, 119",
      "longitude": 30.420657,
      "latitude": 60.033971
    },
    {
      "name": "Ле`Муррр",
      "address": "Проспект Просвещения, 74, корп. 2, лит А",
      "longitude": 30.388865,
      "latitude": 60.04463
    },
    {
      "name": "Ле`Муррр",
      "address": "Проспект Просвещения, 80",
      "longitude": 30.409796,
      "latitude": 60.039027
    },
    {
      "name": "Ле`Муррр",
      "address": "Бульвар Менделеева, 5, корпус 1",
      "longitude": 30.432972,
      "latitude": 60.051953
    },
    {
      "name": "Ле`Муррр",
      "address": "Привокзальная пл., 1А, корп.1",
      "longitude": 30.445243,
      "latitude": 60.050237
    },
    {
      "name": "Ле`Муррр",
      "address": "Улица Шувалова, 1",
      "longitude": 30.422786,
      "latitude": 60.050929
    },
    {
      "name": "Ле`Муррр",
      "address": "Улица Бабушкина, 8, корпус 2",
      "longitude": 30.422848,
      "latitude": 59.897032
    },
    {
      "name": "Ле`Муррр",
      "address": "Дунайский проспект, 27, корп. 1, лит. Б",
      "longitude": 30.363209,
      "latitude": 59.83186
    },
    {
      "name": "Ле`Муррр",
      "address": "Пулковское шоссе, 17",
      "longitude": 30.316111,
      "latitude": 59.828844
    },
    {
      "name": "Ле`Муррр",
      "address": "Улица Звездная, 1",
      "longitude": 30.345387,
      "latitude": 59.831679
    },
    {
      "name": "Ле`Муррр",
      "address": "Улица Ленсовета, 80",
      "longitude": 30.347103,
      "latitude": 59.834406
    },
    {
      "name": "Ле`Муррр",
      "address": "Балканская площадь, 5, лит. Б",
      "longitude": 30.381472,
      "latitude": 59.828256
    },
    {
      "name": "Ле`Муррр",
      "address": "Колпино, Оборонная улица, 1",
      "longitude": 30.608979,
      "latitude": 59.731318
    },
    {
      "name": "Ле`Муррр",
      "address": "Колпино, Октябрьская улица, 8",
      "longitude": 30.622948,
      "latitude": 59.738956
    },
    {
      "name": "Ле`Муррр",
      "address": "Колпино, бульвар Трудящихся, 12",
      "longitude": 30.572095,
      "latitude": 59.737369
    },
    {
      "name": "Ле`Муррр",
      "address": "Колпино, улица Пролетарская, 36 лит. А 1 этаж",
      "longitude": 30.58406,
      "latitude": 59.740588
    },
    {
      "name": "Ле`Муррр",
      "address": "Новгородский проспект, 10",
      "longitude": 30.369282,
      "latitude": 59.806821
    },
    {
      "name": "Ле`Муррр",
      "address": "Улица Олеко Дундича, 17, корп. 1",
      "longitude": 30.399124,
      "latitude": 59.827514
    },
    {
      "name": "Ле`Муррр",
      "address": "Заневский проспект, 65, корп. 1",
      "longitude": 30.432802,
      "latitude": 59.93021
    },
    {
      "name": "Ле`Муррр",
      "address": "Заневский проспект, 71",
      "longitude": 30.440222,
      "latitude": 59.933302
    },
    {
      "name": "Ле`Муррр",
      "address": "Индустриальный проспект, 24, лит. А",
      "longitude": 30.473981,
      "latitude": 59.946175
    },
    {
      "name": "Ле`Муррр",
      "address": "Проспект Наставников, 35, корп. 1",
      "longitude": 30.488237,
      "latitude": 59.950244
    },
    {
      "name": "Ле`Муррр",
      "address": "Бухарестская улица, 47",
      "longitude": 30.390581,
      "latitude": 59.859406
    },
    {
      "name": "Ле`Муррр",
      "address": "Улица Белы Куна, 6, корп. 1",
      "longitude": 30.377412,
      "latitude": 59.870822
    },
    {
      "name": "Ле`Муррр",
      "address": "Улица Белы Куна, 3, лит. А",
      "longitude": 30.379325,
      "latitude": 59.870014
    },
    {
      "name": "Ле`Муррр",
      "address": "Проспект Космонавтов, 45, лит. А",
      "longitude": 30.350139,
      "latitude": 59.851214
    },
    {
      "name": "Ле`Муррр",
      "address": "Пулковское шоссе, 25, корп. 1, лит. А",
      "longitude": 30.317252,
      "latitude": 59.819802
    },
    {
      "name": "Ле`Муррр",
      "address": "Новочеркасский проспект, 32, корп. 1",
      "longitude": 30.413767,
      "latitude": 59.927527
    },
    {
      "name": "Ле`Муррр",
      "address": "Улица Якорная, 5А",
      "longitude": 30.41806,
      "latitude": 59.940132
    },
    {
      "name": "Ле`Муррр",
      "address": "Выборгское шоссе, 3, корп. 1, лит. А",
      "longitude": 30.320665,
      "latitude": 60.038281
    },
    {
      "name": "Ле`Муррр",
      "address": "Новоизмайловский проспект, 28, корп. 1, лит. А",
      "longitude": 30.306247,
      "latitude": 59.859926
    },
    {
      "name": "Ле`Муррр",
      "address": "Проспект Космонавтов, 14, лит. А",
      "longitude": 30.35048,
      "latitude": 59.868948
    },
    {
      "name": "Ле`Муррр",
      "address": "Пересечение КАД и автодороги СПб-Скотное, деревня Порошкино, 117",
      "longitude": 30.34933,
      "latitude": 60.106621
    },
    {
      "name": "Ле`Муррр",
      "address": "Улица Михаила Дудина, 6, корп. 1",
      "longitude": 30.336287,
      "latitude": 60.066958
    },
    {
      "name": "Ле`Муррр",
      "address": "Улица Федора Абрамова, 4, корп. 1, лит. А",
      "longitude": 30.334993,
      "latitude": 60.070253
    },
    {
      "name": "Ле`Муррр",
      "address": "Богатырский проспект, 13",
      "longitude": 30.271949,
      "latitude": 60.000285
    },
    {
      "name": "Ле`Муррр",
      "address": "Улица Карбышева, 9",
      "longitude": 30.353265,
      "latitude": 59.993001
    },
    {
      "name": "Ле`Муррр",
      "address": "Наличная улица, 40, корп. 1",
      "longitude": 30.231903,
      "latitude": 59.949907
    },
    {
      "name": "Ле`Муррр",
      "address": "Петергофское шоссе, 51",
      "longitude": 30.144245,
      "latitude": 59.849202
    },
    {
      "name": "Ле`Муррр",
      "address": "Таллинское шоссе, 27",
      "longitude": 30.146931,
      "latitude": 59.796053
    },
    {
      "name": "Ле`Муррр",
      "address": "Улица Адмирала Трибуца, 5, лит. А",
      "longitude": 30.146257,
      "latitude": 59.853401
    },
    {
      "name": "Ле`Муррр",
      "address": "Улица Партизана Германа, 47",
      "longitude": 30.173458,
      "latitude": 59.824909
    },
    {
      "name": "Ле`Муррр",
      "address": "Прoспект Просвещения, 19, лит. А",
      "longitude": 30.331193,
      "latitude": 60.052703
    },
    {
      "name": "Ле`Муррр",
      "address": "Проспект Художников, 26",
      "longitude": 30.352654,
      "latitude": 60.048251
    },
    {
      "name": "Ле`Муррр",
      "address": "Тепловозная улица, 31",
      "longitude": 30.500607,
      "latitude": 59.830748
    },
    {
      "name": "Ле`Муррр",
      "address": "Богатырский проспект, 42",
      "longitude": 30.228471,
      "latitude": 60.002899
    },
    {
      "name": "Ле`Муррр",
      "address": "Торфяная дорога, 7, лит. Б",
      "longitude": 30.258987,
      "latitude": 59.989319
    },
    {
      "name": "Ле`Муррр",
      "address": "Улица Савушкина, 119, корп. 3",
      "longitude": 30.226099,
      "latitude": 59.988946
    },
    {
      "name": "Ле`Муррр",
      "address": "Европейский проспект, 9, корп. 1",
      "longitude": 30.51162,
      "latitude": 59.901373
    },
    {
      "name": "Ле`Муррр",
      "address": "Мурманское шоссе, 12 км.,",
      "longitude": 30.510111,
      "latitude": 59.88869
    },
    {
      "name": "Ле`Муррр",
      "address": "Проспект Большевиков, 10",
      "longitude": 30.480125,
      "latitude": 59.912003
    },
    {
      "name": "Ле`Муррр",
      "address": "Улица Савушкина, 9",
      "longitude": 30.295872,
      "latitude": 59.986169
    },
    {
      "name": "Ле`Муррр",
      "address": "Улица Большая Разночинная, 16",
      "longitude": 30.290176,
      "latitude": 59.95926
    },
    {
      "name": "Ле`Муррр",
      "address": "Московский проспект, 137",
      "longitude": 30.314673,
      "latitude": 59.881719
    },
    {
      "name": "Ле`Муррр",
      "address": "г. Всеволожск, Дорога Жизни, 11",
      "longitude": 30.629165,
      "latitude": 60.032955
    },
    {
      "name": "Ле`Муррр",
      "address": "г. Всеволожск, улица Ленинградская, 38",
      "longitude": 30.63875,
      "latitude": 60.029027
    },
    {
      "name": "Ле`Муррр",
      "address": "г. Выборг, улица Госпитальная, 1",
      "longitude": 28.714459,
      "latitude": 60.71991
    },
    {
      "name": "Ле`Муррр",
      "address": "г. Гатчина, Ленинградское шоссе, 12",
      "longitude": 30.13863,
      "latitude": 59.583589
    },
    {
      "name": "Ветклиника Косточка",
      "address": "193312 , г.Санкт-Петербург, Дальневосточный пр., д. 12, корп.2, стр. 1 пом. 12-Н",
      "longitude": 30.438479,
      "latitude": 59.913726
    },
    {
      "name": "Ветклиника Вега, Окулюс",
      "address": "198302, г. Санкт-Петербург, ул. Маршала Казакова , д. 1, корп 1, Литер В , пом. 5-Н",
      "longitude": 30.248117,
      "latitude": 59.860378
    },
    {
      "name": "Ветклиника Вега",
      "address": "г. Спб, пр. Наставников, д. 43, корп. 1, Лит. А, с 10 до 20",
      "longitude": 30.488282,
      "latitude": 59.9396
    },
    {
      "name": "Зоомагазин, Ветклиника Вега",
      "address": "196158, г. САнкт-Петербург, Пулковская, д.11, Литер А, пом. 10Н",
      "longitude": 30.348702,
      "latitude": 59.838326
    },
    {
      "name": "Зоомагазин, ветклиника Зоосервис",
      "address": "г.Спб, пр.Наставников, д. 23, с 10 до 20",
      "longitude": 30.491444,
      "latitude": 59.946527
    },
    {
      "name": "Зоомагазин, Ветклиника Вега",
      "address": "г. Спб, Шлиссельбургский пр., д. 17, корп. 1, Лит. А, с 10 до 20",
      "longitude": 30.494552,
      "latitude": 59.841202
    },
    {
      "name": "Зоомагазин, Ветклиника Лаки",
      "address": "г.Спб, ул. Учительская, д. 14, к. 2 (2 этаж) , с 9 до 20",
      "longitude": 30.39995,
      "latitude": 60.033531
    },
    {
      "name": "Зоомагазин, ветаптека Фармакея",
      "address": "196608, г. Пушкин, ул.  Широкая, д.26, лит. Б",
      "longitude": 30.426361,
      "latitude": 59.722813
    }
  ]
}
